{
"type": "FeatureCollection",
"name": "test",
"crs": { "type": "name", "properties": { "name": "urn:ogc:def:crs:OGC:1.3:CRS84" } },
"features": [
{ "type": "Feature", "properties": { "OBJECTID": 1, "name": "Vatican City", "adm0name": "Vatican", "adm0_a3": "VAT", "iso_a2": "VA", "日本語名": "バチカン", "日本語国名": "バチカン市国", "x": 12.453386500086999, "y": 41.903282199913697 }, "geometry": { "type": "Point", "coordinates": [ 12.453386500086999, 41.903282199913697 ] } },
{ "type": "Feature", "properties": { "OBJECTID": 2, "name": "Alofi", "adm0name": "Niue", "adm0_a3": "NIU", "iso_a2": "NZ", "日本語名": "アロフィ", "日本語国名": "ニウエ", "x": -169.91362540019199, "y": -19.065987699972201 }, "geometry": { "type": "Point", "coordinates": [ -169.913625400191989, -19.065987699972201 ] } },
{ "type": "Feature", "properties": { "OBJECTID": 3, "name": "San Marino", "adm0name": "San Marino", "adm0_a3": "SMR", "iso_a2": "SM", "日本語名": "サンマリノ", "日本語国名": "サンマリノ", "x": 12.441770200034901, "y": 43.9360957998814 }, "geometry": { "type": "Point", "coordinates": [ 12.441770200034901, 43.9360957998814 ] } },
{ "type": "Feature", "properties": { "OBJECTID": 4, "name": "Vaduz", "adm0name": "Liechtenstein", "adm0_a3": "LIE", "iso_a2": "LI", "日本語名": "ファドーツ", "日本語国名": "リヒテンシュタイン", "x": 9.5166694997977306, "y": 47.133723800113401 }, "geometry": { "type": "Point", "coordinates": [ 9.516669499797731, 47.133723800113401 ] } },
{ "type": "Feature", "properties": { "OBJECTID": 5, "name": "Luxembourg", "adm0name": "Luxembourg", "adm0_a3": "LUX", "iso_a2": "LU", "日本語名": "ルクセンブルク", "日本語国名": "ルクセンブルク", "x": 6.1300028003890903, "y": 49.611660400007601 }, "geometry": { "type": "Point", "coordinates": [ 6.13000280038909, 49.611660400007601 ] } },
{ "type": "Feature", "properties": { "OBJECTID": 6, "name": "Palikir", "adm0name": "Federated States of Micronesia", "adm0_a3": "FSM", "iso_a2": "FM", "日本語名": "パリキール", "日本語国名": "ミクロネシア", "x": 158.14997429977399, "y": 6.9166436998470404 }, "geometry": { "type": "Point", "coordinates": [ 158.149974299773987, 6.91664369984704 ] } },
{ "type": "Feature", "properties": { "OBJECTID": 7, "name": "Majuro", "adm0name": "Marshall Islands", "adm0_a3": "MHL", "iso_a2": "MH", "日本語名": "マジュロ", "日本語国名": "マーシャル諸島", "x": 171.38000020024899, "y": 7.1030042998087302 }, "geometry": { "type": "Point", "coordinates": [ 171.380000200248986, 7.10300429980873 ] } },
{ "type": "Feature", "properties": { "OBJECTID": 8, "name": "Funafuti", "adm0name": "Tuvalu", "adm0_a3": "TUV", "iso_a2": "TV", "日本語名": "フナフティ", "日本語国名": "ツバル", "x": 179.21664710028401, "y": -8.5166519998897492 }, "geometry": { "type": "Point", "coordinates": [ 179.216647100284007, -8.516651999889749 ] } },
{ "type": "Feature", "properties": { "OBJECTID": 9, "name": "Melekeok", "adm0name": "Palau", "adm0_a3": "PLW", "iso_a2": "PW", "日本語名": "マルキョク", "日本語国名": "パラオ", "x": 134.62654850031299, "y": 7.4873961997749303 }, "geometry": { "type": "Point", "coordinates": [ 134.626548500312992, 7.48739619977493 ] } },
{ "type": "Feature", "properties": { "OBJECTID": 10, "name": "Monaco", "adm0name": "Monaco", "adm0_a3": "MCO", "iso_a2": "MC", "日本語名": "モナコ", "日本語国名": "モナコ", "x": 7.4069131997845297, "y": 43.739645699589502 }, "geometry": { "type": "Point", "coordinates": [ 7.40691319978453, 43.739645699589502 ] } },
{ "type": "Feature", "properties": { "OBJECTID": 11, "name": "Tarawa", "adm0name": "Kiribati", "adm0_a3": "KIR", "iso_a2": "KI", "日本語名": "タラワ", "日本語国名": "キリバス", "x": 173.01757080005299, "y": 1.3381875003529999 }, "geometry": { "type": "Point", "coordinates": [ 173.017570800052994, 1.338187500353 ] } },
{ "type": "Feature", "properties": { "OBJECTID": 12, "name": "Moroni", "adm0name": "Comoros", "adm0_a3": "COM", "iso_a2": "KM", "日本語名": "モロニ", "日本語国名": "コモロ", "x": 43.240244099585702, "y": -11.7041576997179 }, "geometry": { "type": "Point", "coordinates": [ 43.240244099585702, -11.7041576997179 ] } },
{ "type": "Feature", "properties": { "OBJECTID": 13, "name": "Andorra", "adm0name": "Andorra", "adm0_a3": "AND", "iso_a2": "AD", "日本語名": "アンドララベリャ", "日本語国名": "アンドラ", "x": 1.51648600012896, "y": 42.5000013999448 }, "geometry": { "type": "Point", "coordinates": [ 1.51648600012896, 42.5000013999448 ] } },
{ "type": "Feature", "properties": { "OBJECTID": 14, "name": "Avarua", "adm0name": "Cook Islands", "adm0_a3": "COK", "iso_a2": "CK", "日本語名": "アバルア", "日本語国名": "クック諸島", "x": -159.78543669964401, "y": -21.196225600031301 }, "geometry": { "type": "Point", "coordinates": [ -159.785436699644009, -21.196225600031301 ] } },
{ "type": "Feature", "properties": { "OBJECTID": 15, "name": "Port-of-Spain", "adm0name": "Trinidad and Tobago", "adm0_a3": "TTO", "iso_a2": "TT", "日本語名": "ポートオブスペイン", "日本語国名": "トリニダードトバゴ", "x": -61.517030899756001, "y": 10.6519970996866 }, "geometry": { "type": "Point", "coordinates": [ -61.517030899756001, 10.6519970996866 ] } },
{ "type": "Feature", "properties": { "OBJECTID": 16, "name": "Kigali", "adm0name": "Rwanda", "adm0_a3": "RWA", "iso_a2": "RW", "日本語名": "キガリ", "日本語国名": "ルワンダ", "x": 30.058585899819601, "y": -1.9516442004193699 }, "geometry": { "type": "Point", "coordinates": [ 30.058585899819601, -1.95164420041937 ] } },
{ "type": "Feature", "properties": { "OBJECTID": 17, "name": "Mbabane", "adm0name": "eSwatini", "adm0_a3": "SWZ", "iso_a2": "SZ", "日本語名": "ムババーネ", "日本語国名": "エスワティニ", "x": 31.133334500287098, "y": -26.3166507996945 }, "geometry": { "type": "Point", "coordinates": [ 31.133334500287098, -26.3166507996945 ] } },
{ "type": "Feature", "properties": { "OBJECTID": 18, "name": "Juba", "adm0name": "South Sudan", "adm0_a3": "SSD", "iso_a2": "SS", "日本語名": "ジュバ", "日本語国名": "南スーダン", "x": 31.580025600401299, "y": 4.82997520009559 }, "geometry": { "type": "Point", "coordinates": [ 31.580025600401299, 4.82997520009559 ] } },
{ "type": "Feature", "properties": { "OBJECTID": 19, "name": "Ljubljana", "adm0name": "Slovenia", "adm0_a3": "SVN", "iso_a2": "SI", "日本語名": "リュブリャナ", "日本語国名": "スロベニア", "x": 14.5149690004192, "y": 46.055288300314999 }, "geometry": { "type": "Point", "coordinates": [ 14.5149690004192, 46.055288300314999 ] } },
{ "type": "Feature", "properties": { "OBJECTID": 20, "name": "Bratislava", "adm0name": "Slovakia", "adm0_a3": "SVK", "iso_a2": "SK", "日本語名": "ブラチスラバ", "日本語国名": "スロバキア", "x": 17.116980800223899, "y": 48.150018300404398 }, "geometry": { "type": "Point", "coordinates": [ 17.116980800223899, 48.150018300404398 ] } },
{ "type": "Feature", "properties": { "OBJECTID": 21, "name": "Doha", "adm0name": "Qatar", "adm0_a3": "QAT", "iso_a2": "QA", "日本語名": "ドーハ", "日本語国名": "カタール", "x": 51.532967900348503, "y": 25.286555999559901 }, "geometry": { "type": "Point", "coordinates": [ 51.532967900348503, 25.286555999559901 ] } },
{ "type": "Feature", "properties": { "OBJECTID": 22, "name": "Podgorica", "adm0name": "Montenegro", "adm0_a3": "MNE", "iso_a2": "ME", "日本語名": "ポドゴリツァ", "日本語国名": "モンテネグロ", "x": 19.2663068997438, "y": 42.465972499831203 }, "geometry": { "type": "Point", "coordinates": [ 19.2663068997438, 42.465972499831203 ] } },
{ "type": "Feature", "properties": { "OBJECTID": 23, "name": "Bern", "adm0name": "Switzerland", "adm0_a3": "CHE", "iso_a2": "CH", "日本語名": "ベルン", "日本語国名": "スイス", "x": 7.4669755000194904, "y": 46.9166827997715 }, "geometry": { "type": "Point", "coordinates": [ 7.46697550001949, 46.9166827997715 ] } },
{ "type": "Feature", "properties": { "OBJECTID": 24, "name": "Pristina", "adm0name": "Kosovo", "adm0_a3": "KOS", "iso_a2": "-99", "日本語名": "プリシュティナ", "日本語国名": "コソボ", "x": 21.165984300135499, "y": 42.6667095999682 }, "geometry": { "type": "Point", "coordinates": [ 21.165984300135499, 42.6667095999682 ] } },
{ "type": "Feature", "properties": { "OBJECTID": 25, "name": "Roseau", "adm0name": "Dominica", "adm0_a3": "DMA", "iso_a2": "DM", "日本語名": "ロゾー", "日本語国名": "ドミニカ", "x": -61.3870130004495, "y": 15.3010155999901 }, "geometry": { "type": "Point", "coordinates": [ -61.3870130004495, 15.3010155999901 ] } },
{ "type": "Feature", "properties": { "OBJECTID": 26, "name": "Djibouti", "adm0name": "Djibouti", "adm0_a3": "DJI", "iso_a2": "DJ", "日本語名": "ジブチ", "日本語国名": "ジブチ", "x": 43.148001700318403, "y": 11.5950144997195 }, "geometry": { "type": "Point", "coordinates": [ 43.148001700318403, 11.5950144997195 ] } },
{ "type": "Feature", "properties": { "OBJECTID": 27, "name": "Banjul", "adm0name": "The Gambia", "adm0_a3": "GMB", "iso_a2": "GM", "日本語名": "バンジュール", "日本語国名": "ガンビア", "x": -16.591701500423799, "y": 13.4538765000007 }, "geometry": { "type": "Point", "coordinates": [ -16.591701500423799, 13.4538765000007 ] } },
{ "type": "Feature", "properties": { "OBJECTID": 28, "name": "Skopje", "adm0name": "North Macedonia", "adm0_a3": "MKD", "iso_a2": "MK", "日本語名": "スコピエ", "日本語国名": "北マケドニア", "x": 21.433461500348098, "y": 42.000006099901803 }, "geometry": { "type": "Point", "coordinates": [ 21.433461500348098, 42.000006099901803 ] } },
{ "type": "Feature", "properties": { "OBJECTID": 29, "name": "Bridgetown", "adm0name": "Barbados", "adm0_a3": "BRB", "iso_a2": "BB", "日本語名": "ブリッジタウン", "日本語国名": "バルバドス", "x": -59.616526700446698, "y": 13.1020026004398 }, "geometry": { "type": "Point", "coordinates": [ -59.616526700446698, 13.1020026004398 ] } },
{ "type": "Feature", "properties": { "OBJECTID": 30, "name": "Bujumbura", "adm0name": "Burundi", "adm0_a3": "BDI", "iso_a2": "BI", "日本語名": "ブジュンブラ", "日本語国名": "ブルンジ", "x": 29.360006099801801, "y": -3.3760871997642998 }, "geometry": { "type": "Point", "coordinates": [ 29.360006099801801, -3.3760871997643 ] } },
{ "type": "Feature", "properties": { "OBJECTID": 31, "name": "Kingstown", "adm0name": "Saint Vincent and the Grenadines", "adm0_a3": "VCT", "iso_a2": "VC", "日本語名": "キングスタウン", "日本語国名": "セントビンセント及びグレナディーン諸島", "x": -61.212062399659899, "y": 13.1482788000268 }, "geometry": { "type": "Point", "coordinates": [ -61.212062399659899, 13.1482788000268 ] } },
{ "type": "Feature", "properties": { "OBJECTID": 32, "name": "Castries", "adm0name": "Saint Lucia", "adm0_a3": "LCA", "iso_a2": "LC", "日本語名": "カストリーズ", "日本語国名": "セントルシア", "x": -61.000008200318099, "y": 14.001973500177 }, "geometry": { "type": "Point", "coordinates": [ -61.000008200318099, 14.001973500177 ] } },
{ "type": "Feature", "properties": { "OBJECTID": 33, "name": "Basseterre", "adm0name": "Saint Kitts and Nevis", "adm0_a3": "KNA", "iso_a2": "KN", "日本語名": "バセテール", "日本語国名": "セントクリストファー・ネービス", "x": -62.717009300138997, "y": 17.302030499807898 }, "geometry": { "type": "Point", "coordinates": [ -62.717009300138997, 17.302030499807898 ] } },
{ "type": "Feature", "properties": { "OBJECTID": 34, "name": "Port Louis", "adm0name": "Mauritius", "adm0_a3": "MUS", "iso_a2": "MU", "日本語名": "ポートルイス", "日本語国名": "モーリシャス", "x": 57.499993900198497, "y": -20.166638600091201 }, "geometry": { "type": "Point", "coordinates": [ 57.499993900198497, -20.166638600091201 ] } },
{ "type": "Feature", "properties": { "OBJECTID": 35, "name": "Saint George's", "adm0name": "Grenada", "adm0_a3": "GRD", "iso_a2": "GD", "日本語名": "セントジョージズ", "日本語国名": "グレナダ", "x": -61.741643199773698, "y": 12.052633399611899 }, "geometry": { "type": "Point", "coordinates": [ -61.741643199773698, 12.052633399611899 ] } },
{ "type": "Feature", "properties": { "OBJECTID": 36, "name": "Manama", "adm0name": "Bahrain", "adm0_a3": "BHR", "iso_a2": "BH", "日本語名": "マナーマ", "日本語国名": "バーレーン", "x": 50.583051700176, "y": 26.236136300250202 }, "geometry": { "type": "Point", "coordinates": [ 50.583051700176, 26.236136300250202 ] } },
{ "type": "Feature", "properties": { "OBJECTID": 37, "name": "Saint John's", "adm0name": "Antigua and Barbuda", "adm0_a3": "ATG", "iso_a2": "AG", "日本語名": "セントジョンズ", "日本語国名": "アンティグア・バーブーダ", "x": -61.85003379962, "y": 17.118036499984701 }, "geometry": { "type": "Point", "coordinates": [ -61.85003379962, 17.118036499984701 ] } },
{ "type": "Feature", "properties": { "OBJECTID": 38, "name": "Montevideo", "adm0name": "Uruguay", "adm0_a3": "URY", "iso_a2": "UY", "日本語名": "モンテビデオ", "日本語国名": "ウルグアイ", "x": -56.172998100181999, "y": -34.856095699656599 }, "geometry": { "type": "Point", "coordinates": [ -56.172998100181999, -34.856095699656599 ] } },
{ "type": "Feature", "properties": { "OBJECTID": 39, "name": "Lomé", "adm0name": "Togo", "adm0_a3": "TGO", "iso_a2": "TG", "日本語名": "ロメ", "日本語国名": "トーゴ", "x": 1.2208113000016301, "y": 6.1338829001758803 }, "geometry": { "type": "Point", "coordinates": [ 1.22081130000163, 6.13388290017588 ] } },
{ "type": "Feature", "properties": { "OBJECTID": 40, "name": "Tunis", "adm0name": "Tunisia", "adm0_a3": "TUN", "iso_a2": "TN", "日本語名": "チュニス", "日本語国名": "チュニジア", "x": 10.1796781001644, "y": 36.802778099629698 }, "geometry": { "type": "Point", "coordinates": [ 10.1796781001644, 36.802778099629698 ] } },
{ "type": "Feature", "properties": { "OBJECTID": 41, "name": "Abu Dhabi", "adm0name": "United Arab Emirates", "adm0_a3": "ARE", "iso_a2": "AE", "日本語名": "アブダビ", "日本語国名": "アラブ首長国連邦", "x": 54.366593400365304, "y": 24.466683600068301 }, "geometry": { "type": "Point", "coordinates": [ 54.366593400365304, 24.466683600068301 ] } },
{ "type": "Feature", "properties": { "OBJECTID": 42, "name": "Ashgabat", "adm0name": "Turkmenistan", "adm0_a3": "TKM", "iso_a2": "TM", "日本語名": "アシガバット", "日本語国名": "トルクメニスタン", "x": 58.383299099773801, "y": 37.949994899745001 }, "geometry": { "type": "Point", "coordinates": [ 58.383299099773801, 37.949994899745001 ] } },
{ "type": "Feature", "properties": { "OBJECTID": 43, "name": "Lusaka", "adm0name": "Zambia", "adm0_a3": "ZMB", "iso_a2": "ZM", "日本語名": "ルサカ", "日本語国名": "ザンビア", "x": 28.281381700105602, "y": -15.4146983996113 }, "geometry": { "type": "Point", "coordinates": [ 28.281381700105602, -15.4146983996113 ] } },
{ "type": "Feature", "properties": { "OBJECTID": 44, "name": "Harare", "adm0name": "Zimbabwe", "adm0_a3": "ZWE", "iso_a2": "ZW", "日本語名": "ハラレ", "日本語国名": "ジンバブエ", "x": 31.0427635998604, "y": -17.8158438001511 }, "geometry": { "type": "Point", "coordinates": [ 31.0427635998604, -17.8158438001511 ] } },
{ "type": "Feature", "properties": { "OBJECTID": 45, "name": "Dili", "adm0name": "East Timor", "adm0_a3": "TLS", "iso_a2": "TL", "日本語名": "ディリ", "日本語国名": "東ティモール", "x": 125.57945589977, "y": -8.5593883995548499 }, "geometry": { "type": "Point", "coordinates": [ 125.579455899769997, -8.55938839955485 ] } },
{ "type": "Feature", "properties": { "OBJECTID": 46, "name": "Port Vila", "adm0name": "Vanuatu", "adm0_a3": "VUT", "iso_a2": "VU", "日本語名": "ポートビラ", "日本語国名": "バヌアツ", "x": 168.316640600184, "y": -17.7333503999009 }, "geometry": { "type": "Point", "coordinates": [ 168.316640600184002, -17.7333503999009 ] } },
{ "type": "Feature", "properties": { "OBJECTID": 47, "name": "Tegucigalpa", "adm0name": "Honduras", "adm0_a3": "HND", "iso_a2": "HN", "日本語名": "テグシガルパ", "日本語国名": "ホンジュラス", "x": -87.219475200320105, "y": 14.103990799835699 }, "geometry": { "type": "Point", "coordinates": [ -87.219475200320105, 14.103990799835699 ] } },
{ "type": "Feature", "properties": { "OBJECTID": 48, "name": "Georgetown", "adm0name": "Guyana", "adm0_a3": "GUY", "iso_a2": "GY", "日本語名": "ジョージタウン", "日本語国名": "ガイアナ", "x": -58.167028599689999, "y": 6.8019736998265303 }, "geometry": { "type": "Point", "coordinates": [ -58.167028599689999, 6.80197369982653 ] } },
{ "type": "Feature", "properties": { "OBJECTID": 49, "name": "Reykjavík", "adm0name": "Iceland", "adm0_a3": "ISL", "iso_a2": "IS", "日本語名": "レイキャビク", "日本語国名": "アイスランド", "x": -21.950014499869098, "y": 64.150023599609597 }, "geometry": { "type": "Point", "coordinates": [ -21.950014499869098, 64.150023599609597 ] } },
{ "type": "Feature", "properties": { "OBJECTID": 50, "name": "Port-au-Prince", "adm0name": "Haiti", "adm0_a3": "HTI", "iso_a2": "HT", "日本語名": "ポルトープランス", "日本語国名": "ハイチ", "x": -72.337980399975294, "y": 18.5429705003884 }, "geometry": { "type": "Point", "coordinates": [ -72.337980399975294, 18.5429705003884 ] } },
{ "type": "Feature", "properties": { "OBJECTID": 51, "name": "Kampala", "adm0name": "Uganda", "adm0_a3": "UGA", "iso_a2": "UG", "日本語名": "カンパラ", "日本語国名": "ウガンダ", "x": 32.5813777003208, "y": 0.31860479987176399 }, "geometry": { "type": "Point", "coordinates": [ 32.5813777003208, 0.318604799871764 ] } },
{ "type": "Feature", "properties": { "OBJECTID": 52, "name": "Paramaribo", "adm0name": "Suriname", "adm0_a3": "SUR", "iso_a2": "SR", "日本語名": "パラマリポ", "日本語国名": "スリナム", "x": -55.167030899856002, "y": 5.8350301002590799 }, "geometry": { "type": "Point", "coordinates": [ -55.167030899856002, 5.83503010025908 ] } },
{ "type": "Feature", "properties": { "OBJECTID": 53, "name": "Niamey", "adm0name": "Niger", "adm0_a3": "NER", "iso_a2": "NE", "日本語名": "ニアメ", "日本語国名": "ニジェール", "x": 2.1147102003156402, "y": 13.5186517999408 }, "geometry": { "type": "Point", "coordinates": [ 2.11471020031564, 13.5186517999408 ] } },
{ "type": "Feature", "properties": { "OBJECTID": 54, "name": "Dushanbe", "adm0name": "Tajikistan", "adm0_a3": "TJK", "iso_a2": "TJ", "日本語名": "ドゥシャンベ", "日本語国名": "タジキスタン", "x": 68.773879400014494, "y": 38.560035199664902 }, "geometry": { "type": "Point", "coordinates": [ 68.773879400014494, 38.560035199664902 ] } },
{ "type": "Feature", "properties": { "OBJECTID": 55, "name": "Asunción", "adm0name": "Paraguay", "adm0_a3": "PRY", "iso_a2": "PY", "日本語名": "アスンシオン", "日本語国名": "パラグアイ", "x": -57.643450999963498, "y": -25.294457100214899 }, "geometry": { "type": "Point", "coordinates": [ -57.643450999963498, -25.294457100214899 ] } },
{ "type": "Feature", "properties": { "OBJECTID": 56, "name": "Managua", "adm0name": "Nicaragua", "adm0_a3": "NIC", "iso_a2": "NI", "日本語名": "マナグア", "日本語国名": "ニカラグア", "x": -86.270437500190297, "y": 12.1549623997951 }, "geometry": { "type": "Point", "coordinates": [ -86.270437500190297, 12.1549623997951 ] } },
{ "type": "Feature", "properties": { "OBJECTID": 57, "name": "Freetown", "adm0name": "Sierra Leone", "adm0_a3": "SLE", "iso_a2": "SL", "日本語名": "フリータウン", "日本語国名": "シエラレオネ", "x": -13.236161599677899, "y": 8.4719572996897892 }, "geometry": { "type": "Point", "coordinates": [ -13.236161599677899, 8.471957299689789 ] } },
{ "type": "Feature", "properties": { "OBJECTID": 58, "name": "Islamabad", "adm0name": "Pakistan", "adm0_a3": "PAK", "iso_a2": "PK", "日本語名": "イスラマバード", "日本語国名": "パキスタン", "x": 73.080630177540897, "y": 33.689368483868599 }, "geometry": { "type": "Point", "coordinates": [ 73.080630177540897, 33.689368483868599 ] } },
{ "type": "Feature", "properties": { "OBJECTID": 59, "name": "Kathmandu", "adm0name": "Nepal", "adm0_a3": "NPL", "iso_a2": "NP", "日本語名": "カトマンズ", "日本語国名": "ネパール", "x": 85.314696400318795, "y": 27.7186377996949 }, "geometry": { "type": "Point", "coordinates": [ 85.314696400318795, 27.7186377996949 ] } },
{ "type": "Feature", "properties": { "OBJECTID": 60, "name": "Pretoria", "adm0name": "South Africa", "adm0_a3": "ZAF", "iso_a2": "ZA", "日本語名": "プレトリア", "日本語国名": "南アフリカ共和国", "x": 28.227483200289601, "y": -25.7049747004219 }, "geometry": { "type": "Point", "coordinates": [ 28.227483200289601, -25.7049747004219 ] } },
{ "type": "Feature", "properties": { "OBJECTID": 61, "name": "Port Moresby", "adm0name": "Papua New Guinea", "adm0_a3": "PNG", "iso_a2": "PG", "日本語名": "ポートモレスビー", "日本語国名": "パプアニューギニア", "x": 147.19250360036099, "y": -9.46470780042449 }, "geometry": { "type": "Point", "coordinates": [ 147.192503600360993, -9.46470780042449 ] } },
{ "type": "Feature", "properties": { "OBJECTID": 62, "name": "Honiara", "adm0name": "Solomon Islands", "adm0_a3": "SLB", "iso_a2": "SB", "日本語名": "ホニアラ", "日本語国名": "ソロモン諸島", "x": 159.949765700227, "y": -9.4379942996970403 }, "geometry": { "type": "Point", "coordinates": [ 159.949765700227005, -9.43799429969704 ] } },
{ "type": "Feature", "properties": { "OBJECTID": 63, "name": "Panama City", "adm0name": "Panama", "adm0_a3": "PAN", "iso_a2": "PA", "日本語名": "パナマシティ", "日本語国名": "パナマ", "x": -79.534983000065296, "y": 8.9699629998926902 }, "geometry": { "type": "Point", "coordinates": [ -79.534983000065296, 8.96996299989269 ] } },
{ "type": "Feature", "properties": { "OBJECTID": 64, "name": "Rabat", "adm0name": "Morocco", "adm0_a3": "MAR", "iso_a2": "MA", "日本語名": "ラバト", "日本語国名": "モロッコ", "x": -6.8364082002780702, "y": 34.025307299692301 }, "geometry": { "type": "Point", "coordinates": [ -6.83640820027807, 34.025307299692301 ] } },
{ "type": "Feature", "properties": { "OBJECTID": 65, "name": "Chișinău", "adm0name": "Moldova", "adm0_a3": "MDA", "iso_a2": "MD", "日本語名": "キシナウ", "日本語国名": "モルドバ", "x": 28.857711100187299, "y": 47.005023600059197 }, "geometry": { "type": "Point", "coordinates": [ 28.857711100187299, 47.005023600059197 ] } },
{ "type": "Feature", "properties": { "OBJECTID": 66, "name": "Maputo", "adm0name": "Mozambique", "adm0_a3": "MOZ", "iso_a2": "MZ", "日本語名": "マプト", "日本語国名": "モザンビーク", "x": 32.587217099989303, "y": -25.953331599873302 }, "geometry": { "type": "Point", "coordinates": [ 32.587217099989303, -25.953331599873302 ] } },
{ "type": "Feature", "properties": { "OBJECTID": 67, "name": "Mogadishu", "adm0name": "Somalia", "adm0_a3": "SOM", "iso_a2": "SO", "日本語名": "モガディシュ", "日本語国名": "ソマリア", "x": 45.364731800132603, "y": 2.0686272002852202 }, "geometry": { "type": "Point", "coordinates": [ 45.364731800132603, 2.06862720028522 ] } },
{ "type": "Feature", "properties": { "OBJECTID": 68, "name": "Muscat", "adm0name": "Oman", "adm0_a3": "OMN", "iso_a2": "OM", "日本語名": "マスカット", "日本語国名": "オマーン", "x": 58.593312099773797, "y": 23.613324800299399 }, "geometry": { "type": "Point", "coordinates": [ 58.593312099773797, 23.613324800299399 ] } },
{ "type": "Feature", "properties": { "OBJECTID": 69, "name": "Sri Jayawardenepura Kotte", "adm0name": "Sri Lanka", "adm0_a3": "LKA", "iso_a2": "LK", "日本語名": "スリジャヤワルダナプラコッテ", "日本語国名": "スリランカ", "x": 79.897848438155094, "y": 6.8859897440316304 }, "geometry": { "type": "Point", "coordinates": [ 79.897848438155094, 6.88598974403163 ] } },
{ "type": "Feature", "properties": { "OBJECTID": 70, "name": "Ulaanbaatar", "adm0name": "Mongolia", "adm0_a3": "MNG", "iso_a2": "MN", "日本語名": "ウランバートル", "日本語国名": "モンゴル", "x": 106.914669899996, "y": 47.918619299840998 }, "geometry": { "type": "Point", "coordinates": [ 106.914669899995999, 47.918619299840998 ] } },
{ "type": "Feature", "properties": { "OBJECTID": 71, "name": "Windhoek", "adm0name": "Namibia", "adm0_a3": "NAM", "iso_a2": "NA", "日本語名": "ウィントフック", "日本語国名": "ナミビア", "x": 17.083546100172601, "y": -22.570006100400999 }, "geometry": { "type": "Point", "coordinates": [ 17.083546100172601, -22.570006100400999 ] } },
{ "type": "Feature", "properties": { "OBJECTID": 72, "name": "Abuja", "adm0name": "Nigeria", "adm0_a3": "NGA", "iso_a2": "NG", "日本語名": "アブジャ", "日本語国名": "ナイジェリア", "x": 7.53138210040379, "y": 9.0852790000259898 }, "geometry": { "type": "Point", "coordinates": [ 7.53138210040379, 9.08527900002599 ] } },
{ "type": "Feature", "properties": { "OBJECTID": 73, "name": "Bissau", "adm0name": "Guinea Bissau", "adm0_a3": "GNB", "iso_a2": "GW", "日本語名": "ビサウ", "日本語国名": "ギニアビサウ", "x": -15.598360799610999, "y": 11.865023799608799 }, "geometry": { "type": "Point", "coordinates": [ -15.598360799610999, 11.865023799608799 ] } },
{ "type": "Feature", "properties": { "OBJECTID": 74, "name": "Amman", "adm0name": "Jordan", "adm0_a3": "JOR", "iso_a2": "JO", "日本語名": "アンマン", "日本語国名": "ヨルダン", "x": 35.931354099911999, "y": 31.951971099986501 }, "geometry": { "type": "Point", "coordinates": [ 35.931354099911999, 31.951971099986501 ] } },
{ "type": "Feature", "properties": { "OBJECTID": 75, "name": "Vilnius", "adm0name": "Lithuania", "adm0_a3": "LTU", "iso_a2": "LT", "日本語名": "ビリニュス", "日本語国名": "リトアニア", "x": 25.316635300279099, "y": 54.683366300014903 }, "geometry": { "type": "Point", "coordinates": [ 25.316635300279099, 54.683366300014903 ] } },
{ "type": "Feature", "properties": { "OBJECTID": 76, "name": "Riga", "adm0name": "Latvia", "adm0_a3": "LVA", "iso_a2": "LV", "日本語名": "リガ", "日本語国名": "ラトビア", "x": 24.0999653999834, "y": 56.950023800158398 }, "geometry": { "type": "Point", "coordinates": [ 24.0999653999834, 56.950023800158398 ] } },
{ "type": "Feature", "properties": { "OBJECTID": 77, "name": "Bishkek", "adm0name": "Kyrgyzstan", "adm0_a3": "KGZ", "iso_a2": "KG", "日本語名": "ビシュケク", "日本語国名": "キルギス", "x": 74.5832584000553, "y": 42.875025299578098 }, "geometry": { "type": "Point", "coordinates": [ 74.5832584000553, 42.875025299578098 ] } },
{ "type": "Feature", "properties": { "OBJECTID": 78, "name": "Maseru", "adm0name": "Lesotho", "adm0_a3": "LSO", "iso_a2": "LS", "日本語名": "マセル", "日本語国名": "レソト", "x": 27.483273100073699, "y": -29.3166744000034 }, "geometry": { "type": "Point", "coordinates": [ 27.483273100073699, -29.3166744000034 ] } },
{ "type": "Feature", "properties": { "OBJECTID": 79, "name": "Antananarivo", "adm0name": "Madagascar", "adm0_a3": "MDG", "iso_a2": "MG", "日本語名": "アンタナナリボ", "日本語国名": "マダガスカル", "x": 47.514678000189697, "y": -18.914691500212399 }, "geometry": { "type": "Point", "coordinates": [ 47.514678000189697, -18.914691500212399 ] } },
{ "type": "Feature", "properties": { "OBJECTID": 80, "name": "Quito", "adm0name": "Ecuador", "adm0_a3": "ECU", "iso_a2": "EC", "日本語名": "キト", "日本語国名": "エクアドル", "x": -78.501996999861504, "y": -0.21304229966221999 }, "geometry": { "type": "Point", "coordinates": [ -78.501996999861504, -0.21304229966222 ] } },
{ "type": "Feature", "properties": { "OBJECTID": 81, "name": "San José", "adm0name": "Costa Rica", "adm0_a3": "CRI", "iso_a2": "CR", "日本語名": "サンホセ", "日本語国名": "コスタリカ", "x": -84.085997199610901, "y": 9.9369582996859496 }, "geometry": { "type": "Point", "coordinates": [ -84.085997199610901, 9.93695829968595 ] } },
{ "type": "Feature", "properties": { "OBJECTID": 82, "name": "San Salvador", "adm0name": "El Salvador", "adm0_a3": "SLV", "iso_a2": "SV", "日本語名": "サンサルバドル", "日本語国名": "エルサルバドル", "x": -89.204987100174407, "y": 13.7119475002771 }, "geometry": { "type": "Point", "coordinates": [ -89.204987100174407, 13.7119475002771 ] } },
{ "type": "Feature", "properties": { "OBJECTID": 83, "name": "Kingston", "adm0name": "Jamaica", "adm0_a3": "JAM", "iso_a2": "JM", "日本語名": "キングストン", "日本語国名": "ジャマイカ", "x": -76.767433699905197, "y": 17.977076600404899 }, "geometry": { "type": "Point", "coordinates": [ -76.767433699905197, 17.977076600404899 ] } },
{ "type": "Feature", "properties": { "OBJECTID": 84, "name": "Ndjamena", "adm0name": "Chad", "adm0_a3": "TCD", "iso_a2": "TD", "日本語名": "ンジャメナ", "日本語国名": "チャド", "x": 15.0472025001954, "y": 12.1150423997871 }, "geometry": { "type": "Point", "coordinates": [ 15.0472025001954, 12.1150423997871 ] } },
{ "type": "Feature", "properties": { "OBJECTID": 85, "name": "Malabo", "adm0name": "Equatorial Guinea", "adm0_a3": "GNQ", "iso_a2": "GQ", "日本語名": "マラボ", "日本語国名": "赤道ギニア", "x": 8.7832775000567302, "y": 3.7500152999662602 }, "geometry": { "type": "Point", "coordinates": [ 8.78327750005673, 3.75001529996626 ] } },
{ "type": "Feature", "properties": { "OBJECTID": 86, "name": "Asmara", "adm0name": "Eritrea", "adm0_a3": "ERI", "iso_a2": "ER", "日本語名": "アスマラ", "日本語国名": "エリトリア", "x": 38.933323500379402, "y": 15.333339300068801 }, "geometry": { "type": "Point", "coordinates": [ 38.933323500379402, 15.333339300068801 ] } },
{ "type": "Feature", "properties": { "OBJECTID": 87, "name": "Zagreb", "adm0name": "Croatia", "adm0_a3": "HRV", "iso_a2": "HR", "日本語名": "ザグレブ", "日本語国名": "クロアチア", "x": 15.9999946998956, "y": 45.800006700249199 }, "geometry": { "type": "Point", "coordinates": [ 15.9999946998956, 45.800006700249199 ] } },
{ "type": "Feature", "properties": { "OBJECTID": 88, "name": "Tallinn", "adm0name": "Estonia", "adm0_a3": "EST", "iso_a2": "EE", "日本語名": "タリン", "日本語国名": "エストニア", "x": 24.728040699718701, "y": 59.433877400421899 }, "geometry": { "type": "Point", "coordinates": [ 24.728040699718701, 59.433877400421899 ] } },
{ "type": "Feature", "properties": { "OBJECTID": 89, "name": "Lilongwe", "adm0name": "Malawi", "adm0_a3": "MWI", "iso_a2": "MW", "日本語名": "リロングウェ", "日本語国名": "マラウイ", "x": 33.783301999787597, "y": -13.9832950999887 }, "geometry": { "type": "Point", "coordinates": [ 33.783301999787597, -13.9832950999887 ] } },
{ "type": "Feature", "properties": { "OBJECTID": 90, "name": "Guatemala", "adm0name": "Guatemala", "adm0_a3": "GTM", "iso_a2": "GT", "日本語名": "グアテマラシティ", "日本語国名": "グアテマラ", "x": -90.528911400440606, "y": 14.6230805001651 }, "geometry": { "type": "Point", "coordinates": [ -90.528911400440606, 14.6230805001651 ] } },
{ "type": "Feature", "properties": { "OBJECTID": 91, "name": "Libreville", "adm0name": "Gabon", "adm0_a3": "GAB", "iso_a2": "GA", "日本語名": "リーブルビル", "日本語国名": "ガボン", "x": 9.4579649995852204, "y": 0.385388599804173 }, "geometry": { "type": "Point", "coordinates": [ 9.45796499958522, 0.385388599804173 ] } },
{ "type": "Feature", "properties": { "OBJECTID": 92, "name": "Suva", "adm0name": "Fiji", "adm0_a3": "FJI", "iso_a2": "FJ", "日本語名": "スバ", "日本語国名": "フィジー", "x": 178.44170729975201, "y": -18.1330158998637 }, "geometry": { "type": "Point", "coordinates": [ 178.441707299752011, -18.1330158998637 ] } },
{ "type": "Feature", "properties": { "OBJECTID": 93, "name": "Nouakchott", "adm0name": "Mauritania", "adm0_a3": "MRT", "iso_a2": "MR", "日本語名": "ヌアクショット", "日本語国名": "モーリタニア", "x": -15.9753404000393, "y": 18.086426999906301 }, "geometry": { "type": "Point", "coordinates": [ -15.9753404000393, 18.086426999906301 ] } },
{ "type": "Feature", "properties": { "OBJECTID": 94, "name": "Bamako", "adm0name": "Mali", "adm0_a3": "MLI", "iso_a2": "ML", "日本語名": "バマコ", "日本語国名": "マリ", "x": -8.0019849999076804, "y": 12.6519604995776 }, "geometry": { "type": "Point", "coordinates": [ -8.00198499990768, 12.6519604995776 ] } },
{ "type": "Feature", "properties": { "OBJECTID": 95, "name": "Beirut", "adm0name": "Lebanon", "adm0_a3": "LBN", "iso_a2": "LB", "日本語名": "ベイルート", "日本語国名": "レバノン", "x": 35.507762400414599, "y": 33.873920999554599 }, "geometry": { "type": "Point", "coordinates": [ 35.507762400414599, 33.873920999554599 ] } },
{ "type": "Feature", "properties": { "OBJECTID": 96, "name": "Tbilisi", "adm0name": "Georgia", "adm0_a3": "GEO", "iso_a2": "GE", "日本語名": "トビリシ", "日本語国名": "ジョージア", "x": 44.788849599629501, "y": 41.7269558000703 }, "geometry": { "type": "Point", "coordinates": [ 44.788849599629501, 41.7269558000703 ] } },
{ "type": "Feature", "properties": { "OBJECTID": 97, "name": "Nursultan", "adm0name": "Kazakhstan", "adm0_a3": "KAZ", "iso_a2": "KZ", "日本語名": "ヌルスルタン", "日本語国名": "カザフスタン", "x": 71.427774200219304, "y": 51.181125299892898 }, "geometry": { "type": "Point", "coordinates": [ 71.427774200219304, 51.181125299892898 ] } },
{ "type": "Feature", "properties": { "OBJECTID": 98, "name": "Vientiane", "adm0name": "Laos", "adm0_a3": "LAO", "iso_a2": "LA", "日本語名": "ビエンチャン", "日本語国名": "ラオス", "x": 102.599980000077, "y": 17.966692699808402 }, "geometry": { "type": "Point", "coordinates": [ 102.599980000076997, 17.966692699808402 ] } },
{ "type": "Feature", "properties": { "OBJECTID": 99, "name": "Brazzaville", "adm0name": "Congo (Brazzaville)", "adm0_a3": "COG", "iso_a2": "CG", "日本語名": "ブラザビル", "日本語国名": "コンゴ共和国", "x": 15.2827436000373, "y": -4.2572398999013199 }, "geometry": { "type": "Point", "coordinates": [ 15.2827436000373, -4.25723989990132 ] } },
{ "type": "Feature", "properties": { "OBJECTID": 100, "name": "Conakry", "adm0name": "Guinea", "adm0_a3": "GIN", "iso_a2": "GN", "日本語名": "コナクリ", "日本語国名": "ギニア", "x": -13.682180899928399, "y": 9.5334686998207907 }, "geometry": { "type": "Point", "coordinates": [ -13.682180899928399, 9.533468699820791 ] } },
{ "type": "Feature", "properties": { "OBJECTID": 101, "name": "Yamoussoukro", "adm0name": "Ivory Coast", "adm0_a3": "CIV", "iso_a2": "CI", "日本語名": "ヤムスクロ", "日本語国名": "コートジボワール", "x": -5.27550259976499, "y": 6.81838099958361 }, "geometry": { "type": "Point", "coordinates": [ -5.27550259976499, 6.81838099958361 ] } },
{ "type": "Feature", "properties": { "OBJECTID": 102, "name": "Ottawa", "adm0name": "Canada", "adm0_a3": "CAN", "iso_a2": "CA", "日本語名": "オタワ", "日本語国名": "カナダ", "x": -75.701961199849293, "y": 45.418642699800898 }, "geometry": { "type": "Point", "coordinates": [ -75.701961199849293, 45.418642699800898 ] } },
{ "type": "Feature", "properties": { "OBJECTID": 103, "name": "Belgrade", "adm0name": "Serbia", "adm0_a3": "SRB", "iso_a2": "RS", "日本語名": "ベオグラード", "日本語国名": "セルビア", "x": 20.466044799827799, "y": 44.8205912998488 }, "geometry": { "type": "Point", "coordinates": [ 20.466044799827799, 44.8205912998488 ] } },
{ "type": "Feature", "properties": { "OBJECTID": 104, "name": "Bandar Seri Begawan", "adm0name": "Brunei", "adm0_a3": "BRN", "iso_a2": "BN", "日本語名": "バンダルスリブガワン", "日本語国名": "ブルネイ", "x": 114.933284100281, "y": 4.88333110025025 }, "geometry": { "type": "Point", "coordinates": [ 114.933284100281, 4.88333110025025 ] } },
{ "type": "Feature", "properties": { "OBJECTID": 105, "name": "Belmopan", "adm0name": "Belize", "adm0_a3": "BLZ", "iso_a2": "BZ", "日本語名": "ベルモパン", "日本語国名": "ベリーズ", "x": -88.7670730001187, "y": 17.2520335000461 }, "geometry": { "type": "Point", "coordinates": [ -88.7670730001187, 17.2520335000461 ] } },
{ "type": "Feature", "properties": { "OBJECTID": 106, "name": "Bangui", "adm0name": "Central African Republic", "adm0_a3": "CAF", "iso_a2": "CF", "日本語名": "バンギ", "日本語国名": "中央アフリカ", "x": 18.558288099716201, "y": 4.3666443002944098 }, "geometry": { "type": "Point", "coordinates": [ 18.558288099716201, 4.36664430029441 ] } },
{ "type": "Feature", "properties": { "OBJECTID": 107, "name": "Yaounde", "adm0name": "Cameroon", "adm0_a3": "CMR", "iso_a2": "CM", "日本語名": "ヤウンデ", "日本語国名": "カメルーン", "x": 11.514704899811401, "y": 3.8686464997363101 }, "geometry": { "type": "Point", "coordinates": [ 11.514704899811401, 3.86864649973631 ] } },
{ "type": "Feature", "properties": { "OBJECTID": 108, "name": "Tirana", "adm0name": "Albania", "adm0_a3": "ALB", "iso_a2": "AL", "日本語名": "ティラナ", "日本語国名": "アルバニア", "x": 19.8188830003504, "y": 41.327540700143302 }, "geometry": { "type": "Point", "coordinates": [ 19.8188830003504, 41.327540700143302 ] } },
{ "type": "Feature", "properties": { "OBJECTID": 109, "name": "Yerevan", "adm0name": "Armenia", "adm0_a3": "ARM", "iso_a2": "AM", "日本語名": "エレバン", "日本語国名": "アルメニア", "x": 44.511605500293797, "y": 40.183096599828403 }, "geometry": { "type": "Point", "coordinates": [ 44.511605500293797, 40.183096599828403 ] } },
{ "type": "Feature", "properties": { "OBJECTID": 110, "name": "Baku", "adm0name": "Azerbaijan", "adm0_a3": "AZE", "iso_a2": "AZ", "日本語名": "バクー", "日本語国名": "アゼルバイジャン", "x": 49.860271300380397, "y": 40.3972178998864 }, "geometry": { "type": "Point", "coordinates": [ 49.860271300380397, 40.3972178998864 ] } },
{ "type": "Feature", "properties": { "OBJECTID": 111, "name": "Phnom Penh", "adm0name": "Cambodia", "adm0_a3": "KHM", "iso_a2": "KH", "日本語名": "プノンペン", "日本語国名": "カンボジア", "x": 104.914688599999, "y": 11.551975999792701 }, "geometry": { "type": "Point", "coordinates": [ 104.914688599998996, 11.551975999792701 ] } },
{ "type": "Feature", "properties": { "OBJECTID": 112, "name": "La Paz", "adm0name": "Bolivia", "adm0_a3": "BOL", "iso_a2": "BO", "日本語名": "ラパス", "日本語国名": "ボリビア", "x": -68.151931000415203, "y": -16.496027799942901 }, "geometry": { "type": "Point", "coordinates": [ -68.151931000415203, -16.496027799942901 ] } },
{ "type": "Feature", "properties": { "OBJECTID": 113, "name": "Porto-Novo", "adm0name": "Benin", "adm0_a3": "BEN", "iso_a2": "BJ", "日本語名": "ポルトノボ", "日本語国名": "ベナン", "x": 2.6156227728728298, "y": 6.4879478612049901 }, "geometry": { "type": "Point", "coordinates": [ 2.61562277287283, 6.48794786120499 ] } },
{ "type": "Feature", "properties": { "OBJECTID": 114, "name": "Sofia", "adm0name": "Bulgaria", "adm0_a3": "BGR", "iso_a2": "BG", "日本語名": "ソフィア", "日本語国名": "ブルガリア", "x": 23.314708200123501, "y": 42.685295299638497 }, "geometry": { "type": "Point", "coordinates": [ 23.314708200123501, 42.685295299638497 ] } },
{ "type": "Feature", "properties": { "OBJECTID": 115, "name": "Minsk", "adm0name": "Belarus", "adm0_a3": "BLR", "iso_a2": "BY", "日本語名": "ミンスク", "日本語国名": "ベラルーシ", "x": 27.564681300102102, "y": 53.901923300320199 }, "geometry": { "type": "Point", "coordinates": [ 27.564681300102102, 53.901923300320199 ] } },
{ "type": "Feature", "properties": { "OBJECTID": 116, "name": "Thimphu", "adm0name": "Bhutan", "adm0_a3": "BTN", "iso_a2": "BT", "日本語名": "ティンプー", "日本語国名": "ブータン", "x": 89.6390139995966, "y": 27.472985899979399 }, "geometry": { "type": "Point", "coordinates": [ 89.6390139995966, 27.472985899979399 ] } },
{ "type": "Feature", "properties": { "OBJECTID": 117, "name": "Gaborone", "adm0name": "Botswana", "adm0_a3": "BWA", "iso_a2": "BW", "日本語名": "ハボローネ", "日本語国名": "ボツワナ", "x": 25.911947799651401, "y": -24.646313500067802 }, "geometry": { "type": "Point", "coordinates": [ 25.911947799651401, -24.646313500067802 ] } },
{ "type": "Feature", "properties": { "OBJECTID": 118, "name": "Canberra", "adm0name": "Australia", "adm0_a3": "AUS", "iso_a2": "AU", "日本語名": "キャンベラ", "日本語国名": "オーストラリア", "x": 149.129026199799, "y": -35.283028500165003 }, "geometry": { "type": "Point", "coordinates": [ 149.129026199799, -35.283028500165003 ] } },
{ "type": "Feature", "properties": { "OBJECTID": 119, "name": "Ouagadougou", "adm0name": "Burkina Faso", "adm0_a3": "BFA", "iso_a2": "BF", "日本語名": "ワガドゥグー", "日本語国名": "ブルキナファソ", "x": -1.5266695999219499, "y": 12.3722617996425 }, "geometry": { "type": "Point", "coordinates": [ -1.52666959992195, 12.3722617996425 ] } },
{ "type": "Feature", "properties": { "OBJECTID": 120, "name": "Sarajevo", "adm0name": "Bosnia and Herzegovina", "adm0_a3": "BIH", "iso_a2": "BA", "日本語名": "サラエボ", "日本語国名": "ボスニアヘルツェゴビナ", "x": 18.383001700168499, "y": 43.850022400013899 }, "geometry": { "type": "Point", "coordinates": [ 18.383001700168499, 43.850022400013899 ] } },
{ "type": "Feature", "properties": { "OBJECTID": 121, "name": "Naypyidaw", "adm0name": "Myanmar", "adm0_a3": "MMR", "iso_a2": "MM", "日本語名": "ネーピードー", "日本語国名": "ミャンマー", "x": 96.116672700085203, "y": 19.768502900188899 }, "geometry": { "type": "Point", "coordinates": [ 96.116672700085203, 19.768502900188899 ] } },
{ "type": "Feature", "properties": { "OBJECTID": 122, "name": "Nukualofa", "adm0name": "Tonga", "adm0_a3": "TON", "iso_a2": "TO", "日本語名": "ヌクアロファ", "日本語国名": "トンガ", "x": -175.22056450005101, "y": -21.1385124000271 }, "geometry": { "type": "Point", "coordinates": [ -175.220564500051012, -21.1385124000271 ] } },
{ "type": "Feature", "properties": { "OBJECTID": 123, "name": "Victoria", "adm0name": "Seychelles", "adm0_a3": "SYC", "iso_a2": "SC", "日本語名": "ビクトリア", "日本語国名": "セーシェル", "x": 55.449989799789599, "y": -4.6166317000927402 }, "geometry": { "type": "Point", "coordinates": [ 55.449989799789599, -4.61663170009274 ] } },
{ "type": "Feature", "properties": { "OBJECTID": 124, "name": "São Tomé", "adm0name": "Sao Tome and Principe", "adm0_a3": "STP", "iso_a2": "ST", "日本語名": "サントメ", "日本語国名": "サントメ・プリンシペ", "x": 6.7333251996983599, "y": 0.333402100027058 }, "geometry": { "type": "Point", "coordinates": [ 6.73332519969836, 0.333402100027058 ] } },
{ "type": "Feature", "properties": { "OBJECTID": 125, "name": "Apia", "adm0name": "Samoa", "adm0_a3": "WSM", "iso_a2": "WS", "日本語名": "アピア", "日本語国名": "サモア", "x": -171.73864159963, "y": -13.841544999601901 }, "geometry": { "type": "Point", "coordinates": [ -171.73864159963, -13.841544999601901 ] } },
{ "type": "Feature", "properties": { "OBJECTID": 126, "name": "Valletta", "adm0name": "Malta", "adm0_a3": "MLT", "iso_a2": "MT", "日本語名": "バレッタ", "日本語国名": "マルタ", "x": 14.5147106998391, "y": 35.8997324996553 }, "geometry": { "type": "Point", "coordinates": [ 14.5147106998391, 35.8997324996553 ] } },
{ "type": "Feature", "properties": { "OBJECTID": 127, "name": "Malé", "adm0name": "Maldives", "adm0_a3": "MDV", "iso_a2": "MV", "日本語名": "マレ", "日本語国名": "モルディブ", "x": 73.499947500077198, "y": 4.1667082002234102 }, "geometry": { "type": "Point", "coordinates": [ 73.499947500077198, 4.16670820022341 ] } },
{ "type": "Feature", "properties": { "OBJECTID": 128, "name": "Jerusalem", "adm0name": "Israel", "adm0_a3": "ISR", "iso_a2": "IL", "日本語名": "エルサレム", "日本語国名": "イスラエル", "x": 35.2066258998656, "y": 31.778407799680402 }, "geometry": { "type": "Point", "coordinates": [ 35.2066258998656, 31.778407799680402 ] } },
{ "type": "Feature", "properties": { "OBJECTID": 129, "name": "Praia", "adm0name": "Cape Verde", "adm0_a3": "CPV", "iso_a2": "CV", "日本語名": "プライア", "日本語国名": "カーボベルデ", "x": -23.516688899672801, "y": 14.916698000212699 }, "geometry": { "type": "Point", "coordinates": [ -23.516688899672801, 14.916698000212699 ] } },
{ "type": "Feature", "properties": { "OBJECTID": 130, "name": "Nassau", "adm0name": "The Bahamas", "adm0_a3": "BHS", "iso_a2": "BS", "日本語名": "ナッソー", "日本語国名": "バハマ", "x": -77.350043799681401, "y": 25.083390100372998 }, "geometry": { "type": "Point", "coordinates": [ -77.350043799681401, 25.083390100372998 ] } },
{ "type": "Feature", "properties": { "OBJECTID": 131, "name": "Nicosia", "adm0name": "Cyprus", "adm0_a3": "CYP", "iso_a2": "CY", "日本語名": "ニコシア", "日本語国名": "キプロス", "x": 33.366634900180699, "y": 35.166676500120602 }, "geometry": { "type": "Point", "coordinates": [ 33.366634900180699, 35.166676500120602 ] } },
{ "type": "Feature", "properties": { "OBJECTID": 132, "name": "Wellington", "adm0name": "New Zealand", "adm0_a3": "NZL", "iso_a2": "NZ", "日本語名": "ウェリントン", "日本語国名": "ニュージーランド", "x": 174.78326589980199, "y": -41.2999878997217 }, "geometry": { "type": "Point", "coordinates": [ 174.783265899801989, -41.2999878997217 ] } },
{ "type": "Feature", "properties": { "OBJECTID": 133, "name": "Hanoi", "adm0name": "Vietnam", "adm0_a3": "VNM", "iso_a2": "VN", "日本語名": "ハノイ", "日本語国名": "ベトナム", "x": 105.84806830021201, "y": 21.035273099973701 }, "geometry": { "type": "Point", "coordinates": [ 105.848068300212006, 21.035273099973701 ] } },
{ "type": "Feature", "properties": { "OBJECTID": 134, "name": "Ankara", "adm0name": "Turkey", "adm0_a3": "TUR", "iso_a2": "TR", "日本語名": "アンカラ", "日本語国名": "トルコ", "x": 32.862445799733997, "y": 39.929184400140102 }, "geometry": { "type": "Point", "coordinates": [ 32.862445799733997, 39.929184400140102 ] } },
{ "type": "Feature", "properties": { "OBJECTID": 135, "name": "Budapest", "adm0name": "Hungary", "adm0_a3": "HUN", "iso_a2": "HU", "日本語名": "ブダペスト", "日本語国名": "ハンガリー", "x": 19.0813748000072, "y": 47.501952200234001 }, "geometry": { "type": "Point", "coordinates": [ 19.0813748000072, 47.501952200234001 ] } },
{ "type": "Feature", "properties": { "OBJECTID": 136, "name": "Sanaa", "adm0name": "Yemen", "adm0_a3": "YEM", "iso_a2": "YE", "日本語名": "サヌア", "日本語国名": "イエメン", "x": 44.204647500182098, "y": 15.3566792000852 }, "geometry": { "type": "Point", "coordinates": [ 44.204647500182098, 15.3566792000852 ] } },
{ "type": "Feature", "properties": { "OBJECTID": 137, "name": "Bucharest", "adm0name": "Romania", "adm0_a3": "ROU", "iso_a2": "RO", "日本語名": "ブカレスト", "日本語国名": "ルーマニア", "x": 26.098000799997099, "y": 44.435317700052003 }, "geometry": { "type": "Point", "coordinates": [ 26.098000799997099, 44.435317700052003 ] } },
{ "type": "Feature", "properties": { "OBJECTID": 138, "name": "Damascus", "adm0name": "Syria", "adm0_a3": "SYR", "iso_a2": "SY", "日本語名": "ダマスカス", "日本語国名": "シリア", "x": 36.2980500004074, "y": 33.501979900352303 }, "geometry": { "type": "Point", "coordinates": [ 36.2980500004074, 33.501979900352303 ] } },
{ "type": "Feature", "properties": { "OBJECTID": 139, "name": "Lisbon", "adm0name": "Portugal", "adm0_a3": "PRT", "iso_a2": "PT", "日本語名": "リスボン", "日本語国名": "ポルトガル", "x": -9.14681219972306, "y": 38.724668699700899 }, "geometry": { "type": "Point", "coordinates": [ -9.14681219972306, 38.724668699700899 ] } },
{ "type": "Feature", "properties": { "OBJECTID": 140, "name": "Khartoum", "adm0name": "Sudan", "adm0_a3": "SDN", "iso_a2": "SD", "日本語名": "ハルツーム", "日本語国名": "スーダン", "x": 32.5322333999516, "y": 15.590024099732601 }, "geometry": { "type": "Point", "coordinates": [ 32.5322333999516, 15.590024099732601 ] } },
{ "type": "Feature", "properties": { "OBJECTID": 141, "name": "Oslo", "adm0name": "Norway", "adm0_a3": "NOR", "iso_a2": "NO", "日本語名": "オスロ", "日本語国名": "ノルウェー", "x": 10.7480332997971, "y": 59.918636100375899 }, "geometry": { "type": "Point", "coordinates": [ 10.7480332997971, 59.918636100375899 ] } },
{ "type": "Feature", "properties": { "OBJECTID": 142, "name": "Warsaw", "adm0name": "Poland", "adm0_a3": "POL", "iso_a2": "PL", "日本語名": "ワルシャワ", "日本語国名": "ポーランド", "x": 21.005346737961801, "y": 52.230871973163197 }, "geometry": { "type": "Point", "coordinates": [ 21.005346737961801, 52.230871973163197 ] } },
{ "type": "Feature", "properties": { "OBJECTID": 143, "name": "Pyongyang", "adm0name": "North Korea", "adm0_a3": "PRK", "iso_a2": "KP", "日本語名": "ピョンヤン", "日本語国名": "朝鮮民主主義人民共和国", "x": 125.752744899658, "y": 39.021384599819598 }, "geometry": { "type": "Point", "coordinates": [ 125.752744899657998, 39.021384599819598 ] } },
{ "type": "Feature", "properties": { "OBJECTID": 144, "name": "Dar es Salaam", "adm0name": "Tanzania", "adm0_a3": "TZA", "iso_a2": "TZ", "日本語名": "ダルエスサラーム", "日本語国名": "タンザニア", "x": 39.266395999675801, "y": -6.7980667002178699 }, "geometry": { "type": "Point", "coordinates": [ 39.266395999675801, -6.79806670021787 ] } },
{ "type": "Feature", "properties": { "OBJECTID": 145, "name": "Dublin", "adm0name": "Ireland", "adm0_a3": "IRL", "iso_a2": "IE", "日本語名": "ダブリン", "日本語国名": "アイルランド", "x": -6.2569795169909499, "y": 53.346731249047998 }, "geometry": { "type": "Point", "coordinates": [ -6.25697951699095, 53.346731249047998 ] } },
{ "type": "Feature", "properties": { "OBJECTID": 146, "name": "Monrovia", "adm0name": "Liberia", "adm0_a3": "LBR", "iso_a2": "LR", "日本語名": "モンロビア", "日本語国名": "リベリア", "x": -10.7996603997075, "y": 6.3145815996612704 }, "geometry": { "type": "Point", "coordinates": [ -10.7996603997075, 6.31458159966127 ] } },
{ "type": "Feature", "properties": { "OBJECTID": 147, "name": "Kuala Lumpur", "adm0name": "Malaysia", "adm0_a3": "MYS", "iso_a2": "MY", "日本語名": "クアラルンプール", "日本語国名": "マレーシア", "x": 101.698037399706, "y": 3.1686117000700702 }, "geometry": { "type": "Point", "coordinates": [ 101.698037399705996, 3.16861170007007 ] } },
{ "type": "Feature", "properties": { "OBJECTID": 148, "name": "Havana", "adm0name": "Cuba", "adm0_a3": "CUB", "iso_a2": "CU", "日本語名": "ハバナ", "日本語国名": "キューバ", "x": -82.366127999907107, "y": 23.1339046999421 }, "geometry": { "type": "Point", "coordinates": [ -82.366127999907107, 23.1339046999421 ] } },
{ "type": "Feature", "properties": { "OBJECTID": 149, "name": "Prague", "adm0name": "Czechia", "adm0_a3": "CZE", "iso_a2": "CZ", "日本語名": "プラハ", "日本語国名": "チェコ", "x": 14.4640338998448, "y": 50.085282900285797 }, "geometry": { "type": "Point", "coordinates": [ 14.4640338998448, 50.085282900285797 ] } },
{ "type": "Feature", "properties": { "OBJECTID": 150, "name": "Kuwait City", "adm0name": "Kuwait", "adm0_a3": "KWT", "iso_a2": "KW", "日本語名": "クウェート", "日本語国名": "クウェート", "x": 47.976355300357, "y": 29.3716634997709 }, "geometry": { "type": "Point", "coordinates": [ 47.976355300357, 29.3716634997709 ] } },
{ "type": "Feature", "properties": { "OBJECTID": 151, "name": "Santo Domingo", "adm0name": "Dominican Republic", "adm0_a3": "DOM", "iso_a2": "DO", "日本語名": "サントドミンゴ", "日本語国名": "ドミニカ共和国", "x": -69.902030899905995, "y": 18.4720186998033 }, "geometry": { "type": "Point", "coordinates": [ -69.902030899905995, 18.4720186998033 ] } },
{ "type": "Feature", "properties": { "OBJECTID": 152, "name": "Accra", "adm0name": "Ghana", "adm0_a3": "GHA", "iso_a2": "GH", "日本語名": "アクラ", "日本語国名": "ガーナ", "x": -0.21866160015258601, "y": 5.5519805003000302 }, "geometry": { "type": "Point", "coordinates": [ -0.218661600152586, 5.55198050030003 ] } },
{ "type": "Feature", "properties": { "OBJECTID": 153, "name": "Tripoli", "adm0name": "Libya", "adm0_a3": "LBY", "iso_a2": "LY", "日本語名": "トリポリ", "日本語国名": "リビア", "x": 13.1800118002046, "y": 32.892500000374902 }, "geometry": { "type": "Point", "coordinates": [ 13.1800118002046, 32.892500000374902 ] } },
{ "type": "Feature", "properties": { "OBJECTID": 154, "name": "Helsinki", "adm0name": "Finland", "adm0_a3": "FIN", "iso_a2": "FI", "日本語名": "ヘルシンキ", "日本語国名": "フィンランド", "x": 24.932456914655099, "y": 60.163803849168502 }, "geometry": { "type": "Point", "coordinates": [ 24.932456914655099, 60.163803849168502 ] } },
{ "type": "Feature", "properties": { "OBJECTID": 155, "name": "København", "adm0name": "Denmark", "adm0_a3": "DNK", "iso_a2": "DK", "日本語名": "コペンハーゲン", "日本語国名": "デンマーク", "x": 12.5615399001464, "y": 55.680509999936703 }, "geometry": { "type": "Point", "coordinates": [ 12.5615399001464, 55.680509999936703 ] } },
{ "type": "Feature", "properties": { "OBJECTID": 156, "name": "Brasília", "adm0name": "Brazil", "adm0_a3": "BRA", "iso_a2": "BR", "日本語名": "ブラジリア", "日本語国名": "ブラジル", "x": -47.917998100132102, "y": -15.7813943999315 }, "geometry": { "type": "Point", "coordinates": [ -47.917998100132102, -15.7813943999315 ] } },
{ "type": "Feature", "properties": { "OBJECTID": 157, "name": "Brussels", "adm0name": "Belgium", "adm0_a3": "BEL", "iso_a2": "BE", "日本語名": "ブリュッセル", "日本語国名": "ベルギー", "x": 4.3313706997981303, "y": 50.835262899663199 }, "geometry": { "type": "Point", "coordinates": [ 4.33137069979813, 50.835262899663199 ] } },
{ "type": "Feature", "properties": { "OBJECTID": 158, "name": "Dhaka", "adm0name": "Bangladesh", "adm0_a3": "BGD", "iso_a2": "BD", "日本語名": "ダッカ", "日本語国名": "バングラデシュ", "x": 90.406633600160703, "y": 23.7250056004283 }, "geometry": { "type": "Point", "coordinates": [ 90.406633600160703, 23.7250056004283 ] } },
{ "type": "Feature", "properties": { "OBJECTID": 159, "name": "Luanda", "adm0name": "Angola", "adm0_a3": "AGO", "iso_a2": "AO", "日本語名": "ルアンダ", "日本語国名": "アンゴラ", "x": 13.2324811999476, "y": -8.8363403001645793 }, "geometry": { "type": "Point", "coordinates": [ 13.2324811999476, -8.836340300164579 ] } },
{ "type": "Feature", "properties": { "OBJECTID": 160, "name": "Algiers", "adm0name": "Algeria", "adm0_a3": "DZA", "iso_a2": "DZ", "日本語名": "アルジェ", "日本語国名": "アルジェリア", "x": 3.0486067004390498, "y": 36.765010699784099 }, "geometry": { "type": "Point", "coordinates": [ 3.04860670043905, 36.765010699784099 ] } },
{ "type": "Feature", "properties": { "OBJECTID": 161, "name": "Caracas", "adm0name": "Venezuela", "adm0_a3": "VEN", "iso_a2": "VE", "日本語名": "カラカス", "日本語国名": "ベネズエラ", "x": -66.918983100389596, "y": 10.5029443999642 }, "geometry": { "type": "Point", "coordinates": [ -66.918983100389596, 10.5029443999642 ] } },
{ "type": "Feature", "properties": { "OBJECTID": 162, "name": "Kiev", "adm0name": "Ukraine", "adm0_a3": "UKR", "iso_a2": "UA", "日本語名": "キエフ（キーウ）", "日本語国名": "ウクライナ", "x": 30.514682099999099, "y": 50.435313200444 }, "geometry": { "type": "Point", "coordinates": [ 30.514682099999099, 50.435313200444 ] } },
{ "type": "Feature", "properties": { "OBJECTID": 163, "name": "Tashkent", "adm0name": "Uzbekistan", "adm0_a3": "UZB", "iso_a2": "UZ", "日本語名": "タシケント", "日本語国名": "ウズベキスタン", "x": 69.292986999550607, "y": 41.313647699781697 }, "geometry": { "type": "Point", "coordinates": [ 69.292986999550607, 41.313647699781697 ] } },
{ "type": "Feature", "properties": { "OBJECTID": 164, "name": "Madrid", "adm0name": "Spain", "adm0_a3": "ESP", "iso_a2": "ES", "日本語名": "マドリード", "日本語国名": "スペイン", "x": -3.68529749977961, "y": 40.401972100232399 }, "geometry": { "type": "Point", "coordinates": [ -3.68529749977961, 40.401972100232399 ] } },
{ "type": "Feature", "properties": { "OBJECTID": 165, "name": "Stockholm", "adm0name": "Sweden", "adm0_a3": "SWE", "iso_a2": "SE", "日本語名": "ストックホルム", "日本語国名": "スウェーデン", "x": 18.066300168917799, "y": 59.324127203707597 }, "geometry": { "type": "Point", "coordinates": [ 18.066300168917799, 59.324127203707597 ] } },
{ "type": "Feature", "properties": { "OBJECTID": 166, "name": "Bangkok", "adm0name": "Thailand", "adm0_a3": "THA", "iso_a2": "TH", "日本語名": "バンコク", "日本語国名": "タイ", "x": 100.51469879990999, "y": 13.7519451000865 }, "geometry": { "type": "Point", "coordinates": [ 100.514698799909993, 13.7519451000865 ] } },
{ "type": "Feature", "properties": { "OBJECTID": 167, "name": "Lima", "adm0name": "Peru", "adm0_a3": "PER", "iso_a2": "PE", "日本語名": "リマ", "日本語国名": "ペルー", "x": -77.0520079996693, "y": -12.0460667998428 }, "geometry": { "type": "Point", "coordinates": [ -77.0520079996693, -12.0460667998428 ] } },
{ "type": "Feature", "properties": { "OBJECTID": 168, "name": "Dakar", "adm0name": "Senegal", "adm0_a3": "SEN", "iso_a2": "SN", "日本語名": "ダカール", "日本語国名": "セネガル", "x": -17.475075999957301, "y": 14.7177775998565 }, "geometry": { "type": "Point", "coordinates": [ -17.475075999957301, 14.7177775998565 ] } },
{ "type": "Feature", "properties": { "OBJECTID": 169, "name": "Amsterdam", "adm0name": "Netherlands", "adm0_a3": "NLD", "iso_a2": "NL", "日本語名": "アムステルダム", "日本語国名": "オランダ", "x": 4.91469430010204, "y": 52.351914499954397 }, "geometry": { "type": "Point", "coordinates": [ 4.91469430010204, 52.351914499954397 ] } },
{ "type": "Feature", "properties": { "OBJECTID": 170, "name": "Seoul", "adm0name": "South Korea", "adm0_a3": "KOR", "iso_a2": "KR", "日本語名": "ソウル", "日本語国名": "大韓民国", "x": 126.99778510010201, "y": 37.568294999814597 }, "geometry": { "type": "Point", "coordinates": [ 126.997785100102007, 37.568294999814597 ] } },
{ "type": "Feature", "properties": { "OBJECTID": 171, "name": "Manila", "adm0name": "Philippines", "adm0_a3": "PHL", "iso_a2": "PH", "日本語名": "マニラ", "日本語国名": "フィリピン", "x": 120.980271299981, "y": 14.606104800096601 }, "geometry": { "type": "Point", "coordinates": [ 120.980271299980998, 14.606104800096601 ] } },
{ "type": "Feature", "properties": { "OBJECTID": 172, "name": "Berlin", "adm0name": "Germany", "adm0_a3": "DEU", "iso_a2": "DE", "日本語名": "ベルリン", "日本語国名": "ドイツ", "x": 13.399602800329101, "y": 52.523764500031803 }, "geometry": { "type": "Point", "coordinates": [ 13.399602800329101, 52.523764500031803 ] } },
{ "type": "Feature", "properties": { "OBJECTID": 173, "name": "Kinshasa", "adm0name": "Congo (Kinshasa)", "adm0_a3": "COD", "iso_a2": "CD", "日本語名": "キンシャサ", "日本語国名": "コンゴ民主共和国", "x": 15.31302600005, "y": -4.3277782003035599 }, "geometry": { "type": "Point", "coordinates": [ 15.31302600005, -4.32777820030356 ] } },
{ "type": "Feature", "properties": { "OBJECTID": 174, "name": "New Delhi", "adm0name": "India", "adm0_a3": "IND", "iso_a2": "IN", "日本語名": "デリー", "日本語国名": "インド", "x": 77.199979999577494, "y": 28.600022999761801 }, "geometry": { "type": "Point", "coordinates": [ 77.199979999577494, 28.600022999761801 ] } },
{ "type": "Feature", "properties": { "OBJECTID": 175, "name": "Athens", "adm0name": "Greece", "adm0_a3": "GRC", "iso_a2": "GR", "日本語名": "アテネ", "日本語国名": "ギリシャ", "x": 23.731375199905699, "y": 37.985272100227398 }, "geometry": { "type": "Point", "coordinates": [ 23.731375199905699, 37.985272100227398 ] } },
{ "type": "Feature", "properties": { "OBJECTID": 176, "name": "Baghdad", "adm0name": "Iraq", "adm0_a3": "IRQ", "iso_a2": "IQ", "日本語名": "バグダッド", "日本語国名": "イラク", "x": 44.391922900421697, "y": 33.340594399911801 }, "geometry": { "type": "Point", "coordinates": [ 44.391922900421697, 33.340594399911801 ] } },
{ "type": "Feature", "properties": { "OBJECTID": 177, "name": "Addis Ababa", "adm0name": "Ethiopia", "adm0_a3": "ETH", "iso_a2": "ET", "日本語名": "アディスアベバ", "日本語国名": "エチオピア", "x": 38.698058600324302, "y": 9.0352561996140803 }, "geometry": { "type": "Point", "coordinates": [ 38.698058600324302, 9.03525619961408 ] } },
{ "type": "Feature", "properties": { "OBJECTID": 178, "name": "Tehran", "adm0name": "Iran", "adm0_a3": "IRN", "iso_a2": "IR", "日本語名": "テヘラン", "日本語国名": "イラン", "x": 51.422398200017099, "y": 35.673888599679302 }, "geometry": { "type": "Point", "coordinates": [ 51.422398200017099, 35.673888599679302 ] } },
{ "type": "Feature", "properties": { "OBJECTID": 179, "name": "Buenos Aires", "adm0name": "Argentina", "adm0_a3": "ARG", "iso_a2": "AR", "日本語名": "ブエノスアイレス", "日本語国名": "アルゼンチン", "x": -58.432512687310499, "y": -34.610714591205202 }, "geometry": { "type": "Point", "coordinates": [ -58.432512687310499, -34.610714591205202 ] } },
{ "type": "Feature", "properties": { "OBJECTID": 180, "name": "Kabul", "adm0name": "Afghanistan", "adm0_a3": "AFG", "iso_a2": "AF", "日本語名": "カブール", "日本語国名": "アフガニスタン", "x": 69.181314199790705, "y": 34.518636099876304 }, "geometry": { "type": "Point", "coordinates": [ 69.181314199790705, 34.518636099876304 ] } },
{ "type": "Feature", "properties": { "OBJECTID": 181, "name": "Vienna", "adm0name": "Austria", "adm0_a3": "AUT", "iso_a2": "AT", "日本語名": "ウィーン", "日本語国名": "オーストリア", "x": 16.364693100006701, "y": 48.201961100324702 }, "geometry": { "type": "Point", "coordinates": [ 16.364693100006701, 48.201961100324702 ] } },
{ "type": "Feature", "properties": { "OBJECTID": 182, "name": "Washington, D.C.", "adm0name": "United States of America", "adm0_a3": "USA", "iso_a2": "US", "日本語名": "ワシントンD.C.", "日本語国名": "アメリカ合衆国", "x": -77.011364399747094, "y": 38.901495199943703 }, "geometry": { "type": "Point", "coordinates": [ -77.011364399747094, 38.901495199943703 ] } },
{ "type": "Feature", "properties": { "OBJECTID": 183, "name": "London", "adm0name": "United Kingdom", "adm0_a3": "GBR", "iso_a2": "GB", "日本語名": "ロンドン", "日本語国名": "イギリス", "x": -0.118667699554521, "y": 51.501940599978902 }, "geometry": { "type": "Point", "coordinates": [ -0.118667699554521, 51.501940599978902 ] } },
{ "type": "Feature", "properties": { "OBJECTID": 184, "name": "Riyadh", "adm0name": "Saudi Arabia", "adm0_a3": "SAU", "iso_a2": "SA", "日本語名": "リヤド", "日本語国名": "サウジアラビア", "x": 46.770795799986303, "y": 24.642779000051 }, "geometry": { "type": "Point", "coordinates": [ 46.770795799986303, 24.642779000051 ] } },
{ "type": "Feature", "properties": { "OBJECTID": 185, "name": "Moscow", "adm0name": "Russia", "adm0_a3": "RUS", "iso_a2": "RU", "日本語名": "モスクワ", "日本語国名": "ロシア連邦", "x": 37.6135769997789, "y": 55.754109999976698 }, "geometry": { "type": "Point", "coordinates": [ 37.6135769997789, 55.754109999976698 ] } },
{ "type": "Feature", "properties": { "OBJECTID": 186, "name": "Mexico City", "adm0name": "Mexico", "adm0_a3": "MEX", "iso_a2": "MX", "日本語名": "メキシコシティ", "日本語国名": "メキシコ", "x": -99.132934100228397, "y": 19.444388299580499 }, "geometry": { "type": "Point", "coordinates": [ -99.132934100228397, 19.444388299580499 ] } },
{ "type": "Feature", "properties": { "OBJECTID": 187, "name": "Rome", "adm0name": "Italy", "adm0_a3": "ITA", "iso_a2": "IT", "日本語名": "ローマ", "日本語国名": "イタリア", "x": 12.4813125998967, "y": 41.897901500354102 }, "geometry": { "type": "Point", "coordinates": [ 12.4813125998967, 41.897901500354102 ] } },
{ "type": "Feature", "properties": { "OBJECTID": 188, "name": "Beijing", "adm0name": "China", "adm0_a3": "CHN", "iso_a2": "CN", "日本語名": "ペキン", "日本語国名": "中華人民共和国", "x": 116.394200892158, "y": 39.901720309944501 }, "geometry": { "type": "Point", "coordinates": [ 116.394200892157997, 39.901720309944501 ] } },
{ "type": "Feature", "properties": { "OBJECTID": 189, "name": "Nairobi", "adm0name": "Kenya", "adm0_a3": "KEN", "iso_a2": "KE", "日本語名": "ナイロビ", "日本語国名": "ケニア", "x": 36.814710999713, "y": -1.28140090043104 }, "geometry": { "type": "Point", "coordinates": [ 36.814710999713, -1.28140090043104 ] } },
{ "type": "Feature", "properties": { "OBJECTID": 190, "name": "Jakarta", "adm0name": "Indonesia", "adm0_a3": "IDN", "iso_a2": "ID", "日本語名": "ジャカルタ", "日本語国名": "インドネシア", "x": 106.82749179990699, "y": -6.1724717999334802 }, "geometry": { "type": "Point", "coordinates": [ 106.827491799906994, -6.17247179993348 ] } },
{ "type": "Feature", "properties": { "OBJECTID": 191, "name": "Bogota", "adm0name": "Colombia", "adm0_a3": "COL", "iso_a2": "CO", "日本語名": "ボゴタ", "日本語国名": "コロンビア", "x": -74.085289800283903, "y": 4.5983694004276598 }, "geometry": { "type": "Point", "coordinates": [ -74.085289800283903, 4.59836940042766 ] } },
{ "type": "Feature", "properties": { "OBJECTID": 192, "name": "Cairo", "adm0name": "Egypt", "adm0_a3": "EGY", "iso_a2": "EG", "日本語名": "カイロ", "日本語国名": "エジプト", "x": 31.2480224004136, "y": 30.0519061997115 }, "geometry": { "type": "Point", "coordinates": [ 31.2480224004136, 30.0519061997115 ] } },
{ "type": "Feature", "properties": { "OBJECTID": 193, "name": "Tokyo", "adm0name": "Japan", "adm0_a3": "JPN", "iso_a2": "JP", "日本語名": "東京", "日本語国名": "日本", "x": 139.74946159977301, "y": 35.686962799693603 }, "geometry": { "type": "Point", "coordinates": [ 139.749461599773014, 35.686962799693603 ] } },
{ "type": "Feature", "properties": { "OBJECTID": 194, "name": "Paris", "adm0name": "France", "adm0_a3": "FRA", "iso_a2": "FR", "日本語名": "パリ", "日本語国名": "フランス", "x": 2.3529924616329398, "y": 48.858092316107701 }, "geometry": { "type": "Point", "coordinates": [ 2.35299246163294, 48.858092316107701 ] } },
{ "type": "Feature", "properties": { "OBJECTID": 195, "name": "Santiago", "adm0name": "Chile", "adm0_a3": "CHL", "iso_a2": "CL", "日本語名": "サンティアゴ", "日本語国名": "チリ", "x": -70.668986700076005, "y": -33.448068000437701 }, "geometry": { "type": "Point", "coordinates": [ -70.668986700076005, -33.448068000437701 ] } },
{ "type": "Feature", "properties": { "OBJECTID": 196, "name": "Singapore", "adm0name": "Singapore", "adm0_a3": "SGP", "iso_a2": "SG", "日本語名": "シンガポール", "日本語国名": "シンガポール", "x": 103.853874800382, "y": 1.29497930015475 }, "geometry": { "type": "Point", "coordinates": [ 103.853874800382002, 1.29497930015475 ] } },
{ "type": "Feature", "properties": { "OBJECTID": 197, "name": "Yaren", "adm0name": "Nauru", "adm0_a3": "NRU", "iso_a2": "NR", "日本語名": "ヤレン", "日本語国名": "ナウル", "x": 166.92100788620499, "y": -0.54473030346059703 }, "geometry": { "type": "Point", "coordinates": [ 166.92100788620499, -0.544730303460597 ] } }
]
}
