{"type":"FeatureCollection","features":[{"type":"Feature","properties":{"name":"石狩川","description":"石狩平野を作った川。"},"geometry":{"coordinates":[141.42579701847603,43.17016095142415],"type":"Point"},"id":0},{"type":"Feature","properties":{"name":"北上川","description":"南北に長い。"},"geometry":{"coordinates":[141.3256332237873,38.51547557969886],"type":"Point"},"id":1},{"type":"Feature","properties":{"name":"信濃川","description":"日本一長い。"},"geometry":{"coordinates":[138.8453405695247,37.47122804260603],"type":"Point"},"id":2},{"type":"Feature","properties":{"name":"利根川","description":"流域面積が日本一。"},"geometry":{"coordinates":[140.74978990256938,35.77950169454253],"type":"Point"},"id":3},{"type":"Feature","properties":{"name":"木曽川","description":"長野・岐阜・愛知の３県を流れる。"},"geometry":{"coordinates":[136.729881014952,35.30430245036662],"type":"Point"},"id":4},{"type":"Feature","properties":{"name":"琵琶湖","description":"近畿の水がめ。"},"geometry":{"coordinates":[136.1027533924253,35.29534785229946],"type":"Point"},"id":5},{"type":"Feature","properties":{"name":"淀川","description":"京都・大阪に水を供給。"},"geometry":{"coordinates":[135.62166823909524,34.810885550054934],"type":"Point"},"id":6},{"type":"Feature","properties":{"name":"筑後川","description":"有明海に流れ入る。"},"geometry":{"coordinates":[130.39923307493893,33.248529177735094],"type":"Point"},"id":7}]}