{
"type": "FeatureCollection",
"name": "nationalflag",
"crs": { "type": "name", "properties": { "name": "urn:ogc:def:crs:OGC:1.3:CRS84" } },
"features": [
{ "type": "Feature", "properties": { "country_code": "IS", "name_jp": "アイスランド共和国", "name_jps": "アイスランド", "capital_jp": "レイキャビク", "capital_en": "Reykjavik" }, "geometry": { "type": "Point", "coordinates": [ -21.9424373, 64.1462044 ] } },
{ "type": "Feature", "properties": { "country_code": "IE", "name_jp": "アイルランド", "name_jps": "アイルランド", "capital_jp": "ダブリン", "capital_en": "Dublin" }, "geometry": { "type": "Point", "coordinates": [ -6.2670798, 53.3439636 ] } },
{ "type": "Feature", "properties": { "country_code": "AZ", "name_jp": "アゼルバイジャン共和国", "name_jps": "アゼルバイジャン", "capital_jp": "バクー", "capital_en": "Baku" }, "geometry": { "type": "Point", "coordinates": [ 49.8320385, 40.3670397 ] } },
{ "type": "Feature", "properties": { "country_code": "AF", "name_jp": "アフガニスタン・イスラム共和国", "name_jps": "アフガニスタン", "capital_jp": "カブール", "capital_en": "Kabul" }, "geometry": { "type": "Point", "coordinates": [ 69.1736723, 34.5210955 ] } },
{ "type": "Feature", "properties": { "country_code": "US", "name_jp": "アメリカ合衆国", "name_jps": "アメリカ（米国）", "capital_jp": "ワシントンD.C.", "capital_en": "Washington, D.C." }, "geometry": { "type": "Point", "coordinates": [ -77.0158701, 38.8954503 ] } },
{ "type": "Feature", "properties": { "country_code": "AE", "name_jp": "アラブ首長国連邦", "name_jps": "アラブ首長国連邦", "capital_jp": "アブダビ", "capital_en": "Abu Dhabi" }, "geometry": { "type": "Point", "coordinates": [ 54.3787498, 24.487729 ] } },
{ "type": "Feature", "properties": { "country_code": "DZ", "name_jp": "アルジェリア民主人民共和国", "name_jps": "アルジェリア", "capital_jp": "アルジェ", "capital_en": "Algiers" }, "geometry": { "type": "Point", "coordinates": [ 3.0577373, 36.7762431 ] } },
{ "type": "Feature", "properties": { "country_code": "AR", "name_jp": "アルゼンチン共和国", "name_jps": "アルゼンチン", "capital_jp": "ブエノスアイレス", "capital_en": "Buenos Aires" }, "geometry": { "type": "Point", "coordinates": [ -58.3737025, -34.6081414 ] } },
{ "type": "Feature", "properties": { "country_code": "AL", "name_jp": "アルバニア共和国", "name_jps": "アルバニア", "capital_jp": "ティラナ", "capital_en": "Tirana" }, "geometry": { "type": "Point", "coordinates": [ 19.8193172, 41.3274082 ] } },
{ "type": "Feature", "properties": { "country_code": "AM", "name_jp": "アルメニア共和国", "name_jps": "アルメニア", "capital_jp": "エレバン", "capital_en": "Yerevan" }, "geometry": { "type": "Point", "coordinates": [ 44.5040456, 40.1746332 ] } },
{ "type": "Feature", "properties": { "country_code": "AO", "name_jp": "アンゴラ共和国", "name_jps": "アンゴラ", "capital_jp": "ルアンダ", "capital_en": "Luanda" }, "geometry": { "type": "Point", "coordinates": [ 13.2358495, -8.8179857 ] } },
{ "type": "Feature", "properties": { "country_code": "AG", "name_jp": "アンティグア・バーブーダ", "name_jps": "アンティグア・バーブーダ", "capital_jp": "セントジョンズ", "capital_en": "St. John's" }, "geometry": { "type": "Point", "coordinates": [ -61.8339573, 17.1181446 ] } },
{ "type": "Feature", "properties": { "country_code": "AD", "name_jp": "アンドラ公国", "name_jps": "アンドラ", "capital_jp": "アンドララベラ", "capital_en": "Andorra la Vella" }, "geometry": { "type": "Point", "coordinates": [ 1.5220151, 42.5073868 ] } },
{ "type": "Feature", "properties": { "country_code": "YE", "name_jp": "イエメン共和国", "name_jps": "イエメン", "capital_jp": "サヌア", "capital_en": "Sana'a" }, "geometry": { "type": "Point", "coordinates": [ 44.2063384, 15.3558942 ] } },
{ "type": "Feature", "properties": { "country_code": "GB", "name_jp": "グレートブリテン及び北アイルランド連合王国", "name_jps": "イギリス（英国）", "capital_jp": "ロンドン", "capital_en": "London" }, "geometry": { "type": "Point", "coordinates": [ -0.0786264, 51.504827 ] } },
{ "type": "Feature", "properties": { "country_code": "IL", "name_jp": "イスラエル国", "name_jps": "イスラエル", "capital_jp": "エルサレム", "capital_en": "Jerusalem" }, "geometry": { "type": "Point", "coordinates": [ 35.2238524, 31.7808516 ] } },
{ "type": "Feature", "properties": { "country_code": "IT", "name_jp": "イタリア共和国", "name_jps": "イタリア", "capital_jp": "ローマ", "capital_en": "Rome" }, "geometry": { "type": "Point", "coordinates": [ 12.4834738, 41.8930546 ] } },
{ "type": "Feature", "properties": { "country_code": "IQ", "name_jp": "イラク共和国", "name_jps": "イラク", "capital_jp": "バグダッド", "capital_en": "Baghdad" }, "geometry": { "type": "Point", "coordinates": [ 44.4047534, 33.335064 ] } },
{ "type": "Feature", "properties": { "country_code": "IR", "name_jp": "イラン・イスラム共和国", "name_jps": "イラン", "capital_jp": "テヘラン", "capital_en": "Tehran" }, "geometry": { "type": "Point", "coordinates": [ 51.414932, 35.6812409 ] } },
{ "type": "Feature", "properties": { "country_code": "IN", "name_jp": "インド", "name_jps": "インド", "capital_jp": "デリー", "capital_en": "Delhi" }, "geometry": { "type": "Point", "coordinates": [ 77.2207318, 28.6720669 ] } },
{ "type": "Feature", "properties": { "country_code": "ID", "name_jp": "インドネシア共和国", "name_jps": "インドネシア", "capital_jp": "ジャカルタ", "capital_en": "Jakarta" }, "geometry": { "type": "Point", "coordinates": [ 106.8283893, -6.1815787 ] } },
{ "type": "Feature", "properties": { "country_code": "UG", "name_jp": "ウガンダ共和国", "name_jps": "ウガンダ", "capital_jp": "カンパラ", "capital_en": "Kampala" }, "geometry": { "type": "Point", "coordinates": [ 32.5862304, 0.3149631 ] } },
{ "type": "Feature", "properties": { "country_code": "UA", "name_jp": "ウクライナ", "name_jps": "ウクライナ", "capital_jp": "キーウ", "capital_en": "Kyiv" }, "geometry": { "type": "Point", "coordinates": [ 30.520272, 50.446306 ] } },
{ "type": "Feature", "properties": { "country_code": "UZ", "name_jp": "ウズベキスタン共和国", "name_jps": "ウズベキスタン", "capital_jp": "タシケント", "capital_en": "Tashkent" }, "geometry": { "type": "Point", "coordinates": [ 69.2492835, 41.3108248 ] } },
{ "type": "Feature", "properties": { "country_code": "UY", "name_jp": "ウルグアイ東方共和国", "name_jps": "ウルグアイ", "capital_jp": "モンテビデオ", "capital_en": "Montevideo" }, "geometry": { "type": "Point", "coordinates": [ -56.1861229, -34.9062357 ] } },
{ "type": "Feature", "properties": { "country_code": "EC", "name_jp": "エクアドル共和国", "name_jps": "エクアドル", "capital_jp": "キト", "capital_en": "Quito" }, "geometry": { "type": "Point", "coordinates": [ -78.5115271, -0.220366 ] } },
{ "type": "Feature", "properties": { "country_code": "EG", "name_jp": "エジプト・アラブ共和国", "name_jps": "エジプト", "capital_jp": "カイロ", "capital_en": "Cairo" }, "geometry": { "type": "Point", "coordinates": [ 31.2449268, 30.0448511 ] } },
{ "type": "Feature", "properties": { "country_code": "EE", "name_jp": "エストニア共和国", "name_jps": "エストニア", "capital_jp": "タリン", "capital_en": "Tallinn" }, "geometry": { "type": "Point", "coordinates": [ 24.745231, 59.4369974 ] } },
{ "type": "Feature", "properties": { "country_code": "SZ", "name_jp": "エスワティニ王国", "name_jps": "エスワティニ", "capital_jp": "ムババーネ", "capital_en": "Mbabane" }, "geometry": { "type": "Point", "coordinates": [ 31.1446825, -26.3265115 ] } },
{ "type": "Feature", "properties": { "country_code": "ET", "name_jp": "エチオピア連邦民主共和国", "name_jps": "エチオピア", "capital_jp": "アディスアベバ", "capital_en": "Addis Ababa" }, "geometry": { "type": "Point", "coordinates": [ 38.7508585, 9.0346684 ] } },
{ "type": "Feature", "properties": { "country_code": "ER", "name_jp": "エリトリア国", "name_jps": "エリトリア", "capital_jp": "アスマラ", "capital_en": "Asmara" }, "geometry": { "type": "Point", "coordinates": [ 38.9420405, 15.3363425 ] } },
{ "type": "Feature", "properties": { "country_code": "SV", "name_jp": "エルサルバドル共和国", "name_jps": "エルサルバドル", "capital_jp": "サンサルバドル", "capital_en": "San Salvador" }, "geometry": { "type": "Point", "coordinates": [ -89.1891719, 13.7025001 ] } },
{ "type": "Feature", "properties": { "country_code": "AU", "name_jp": "オーストラリア連邦", "name_jps": "オーストラリア", "capital_jp": "キャンベラ", "capital_en": "Canberra" }, "geometry": { "type": "Point", "coordinates": [ 149.116693700000013, -35.3106933 ] } },
{ "type": "Feature", "properties": { "country_code": "AT", "name_jp": "オーストリア共和国", "name_jps": "オーストリア", "capital_jp": "ウィーン", "capital_en": "Vienna" }, "geometry": { "type": "Point", "coordinates": [ 16.3565084, 48.2109437 ] } },
{ "type": "Feature", "properties": { "country_code": "OM", "name_jp": "オマーン国", "name_jps": "オマーン", "capital_jp": "マスカット", "capital_en": "Muscat" }, "geometry": { "type": "Point", "coordinates": [ 58.5430875, 23.6150917 ] } },
{ "type": "Feature", "properties": { "country_code": "NL", "name_jp": "オランダ王国", "name_jps": "オランダ", "capital_jp": "アムステルダム", "capital_en": "Amsterdam" }, "geometry": { "type": "Point", "coordinates": [ 4.8995816, 52.3679843 ] } },
{ "type": "Feature", "properties": { "country_code": "GH", "name_jp": "ガーナ共和国", "name_jps": "ガーナ", "capital_jp": "アクラ", "capital_en": "Accra" }, "geometry": { "type": "Point", "coordinates": [ -0.2035776, 5.5507001 ] } },
{ "type": "Feature", "properties": { "country_code": "CV", "name_jp": "カーボベルデ共和国", "name_jps": "カーボベルデ", "capital_jp": "プライア", "capital_en": "Praia" }, "geometry": { "type": "Point", "coordinates": [ -23.5092728, 14.9171437 ] } },
{ "type": "Feature", "properties": { "country_code": "GY", "name_jp": "ガイアナ共和国", "name_jps": "ガイアナ", "capital_jp": "ジョージタウン", "capital_en": "Georgetown" }, "geometry": { "type": "Point", "coordinates": [ -58.1650007, 6.8110954 ] } },
{ "type": "Feature", "properties": { "country_code": "KZ", "name_jp": "カザフスタン共和国", "name_jps": "カザフスタン", "capital_jp": "アスタナ", "capital_en": "Astana" }, "geometry": { "type": "Point", "coordinates": [ 71.420043, 51.1668247 ] } },
{ "type": "Feature", "properties": { "country_code": "QA", "name_jp": "カタール国", "name_jps": "カタール", "capital_jp": "ドーハ", "capital_en": "Doha" }, "geometry": { "type": "Point", "coordinates": [ 51.5046599, 25.2818113 ] } },
{ "type": "Feature", "properties": { "country_code": "CA", "name_jp": "カナダ", "name_jps": "カナダ", "capital_jp": "オタワ", "capital_en": "Ottawa" }, "geometry": { "type": "Point", "coordinates": [ -75.6904893, 45.420608 ] } },
{ "type": "Feature", "properties": { "country_code": "GA", "name_jp": "ガボン共和国", "name_jps": "ガボン", "capital_jp": "リーブルビル", "capital_en": "Libreville" }, "geometry": { "type": "Point", "coordinates": [ 9.4444392, 0.4104804 ] } },
{ "type": "Feature", "properties": { "country_code": "CM", "name_jp": "カメルーン共和国", "name_jps": "カメルーン", "capital_jp": "ヤウンデ", "capital_en": "Yaounde" }, "geometry": { "type": "Point", "coordinates": [ 11.5165097, 3.8748155 ] } },
{ "type": "Feature", "properties": { "country_code": "KR", "name_jp": "大韓民国", "name_jps": "韓国", "capital_jp": "ソウル", "capital_en": "Seoul" }, "geometry": { "type": "Point", "coordinates": [ 126.9779451, 37.5662952 ] } },
{ "type": "Feature", "properties": { "country_code": "GM", "name_jp": "ガンビア共和国", "name_jps": "ガンビア", "capital_jp": "バンジュール", "capital_en": "Banjul" }, "geometry": { "type": "Point", "coordinates": [ -16.578641, 13.4579377 ] } },
{ "type": "Feature", "properties": { "country_code": "KH", "name_jp": "カンボジア王国", "name_jps": "カンボジア", "capital_jp": "プノンペン", "capital_en": "Phnom Penh" }, "geometry": { "type": "Point", "coordinates": [ 104.9168018, 11.5762481 ] } },
{ "type": "Feature", "properties": { "country_code": "KP", "name_jp": "朝鮮民主主義人民共和国", "name_jps": "北朝鮮", "capital_jp": "ピョンヤン", "capital_en": "Pyongyang" }, "geometry": { "type": "Point", "coordinates": [ 125.7503686, 39.0285429 ] } },
{ "type": "Feature", "properties": { "country_code": "MK", "name_jp": "北マケドニア共和国", "name_jps": "北マケドニア", "capital_jp": "スコピエ", "capital_en": "Skopje" }, "geometry": { "type": "Point", "coordinates": [ 21.4202766, 42.0040829 ] } },
{ "type": "Feature", "properties": { "country_code": "GN", "name_jp": "ギニア共和国", "name_jps": "ギニア", "capital_jp": "コナクリ", "capital_en": "Conakry" }, "geometry": { "type": "Point", "coordinates": [ -13.717439, 9.51014 ] } },
{ "type": "Feature", "properties": { "country_code": "GW", "name_jp": "ギニアビサウ共和国", "name_jps": "ギニアビサウ", "capital_jp": "ビサウ", "capital_en": "Bissau" }, "geometry": { "type": "Point", "coordinates": [ -15.5849111, 11.8638703 ] } },
{ "type": "Feature", "properties": { "country_code": "CY", "name_jp": "キプロス共和国", "name_jps": "キプロス", "capital_jp": "ニコシア", "capital_en": "Nicosia" }, "geometry": { "type": "Point", "coordinates": [ 33.365973, 35.1733589 ] } },
{ "type": "Feature", "properties": { "country_code": "CU", "name_jp": "キューバ共和国", "name_jps": "キューバ", "capital_jp": "ハバナ", "capital_en": "Havana" }, "geometry": { "type": "Point", "coordinates": [ -82.3559261, 23.1423901 ] } },
{ "type": "Feature", "properties": { "country_code": "GR", "name_jp": "ギリシャ共和国", "name_jps": "ギリシャ", "capital_jp": "アテネ", "capital_en": "Athens" }, "geometry": { "type": "Point", "coordinates": [ 23.7273379, 37.98189 ] } },
{ "type": "Feature", "properties": { "country_code": "KI", "name_jp": "キリバス共和国", "name_jps": "キリバス", "capital_jp": "タラワ", "capital_en": "Tarawa" }, "geometry": { "type": "Point", "coordinates": [ 172.9772915, 1.3280541 ] } },
{ "type": "Feature", "properties": { "country_code": "KG", "name_jp": "キルギス共和国", "name_jps": "キルギス", "capital_jp": "ビシュケク", "capital_en": "Bishkek" }, "geometry": { "type": "Point", "coordinates": [ 74.5865589, 42.8761758 ] } },
{ "type": "Feature", "properties": { "country_code": "GT", "name_jp": "グアテマラ共和国", "name_jps": "グアテマラ", "capital_jp": "グアテマラシティ", "capital_en": "Guatemala City" }, "geometry": { "type": "Point", "coordinates": [ -90.5154453, 14.6272457 ] } },
{ "type": "Feature", "properties": { "country_code": "KW", "name_jp": "クウェート国", "name_jps": "クウェート", "capital_jp": "クウェート", "capital_en": "Kuwait City" }, "geometry": { "type": "Point", "coordinates": [ 47.9732347, 29.3672408 ] } },
{ "type": "Feature", "properties": { "country_code": "CK", "name_jp": "クック諸島", "name_jps": "クック諸島", "capital_jp": "アバルア", "capital_en": "Avarua" }, "geometry": { "type": "Point", "coordinates": [ -159.778778, -21.2078438 ] } },
{ "type": "Feature", "properties": { "country_code": "GD", "name_jp": "グレナダ", "name_jps": "グレナダ", "capital_jp": "セントジョージズ", "capital_en": "St. George's" }, "geometry": { "type": "Point", "coordinates": [ -61.7432767, 12.0471534 ] } },
{ "type": "Feature", "properties": { "country_code": "HR", "name_jp": "クロアチア共和国", "name_jps": "クロアチア", "capital_jp": "ザグレブ", "capital_en": "Zagreb" }, "geometry": { "type": "Point", "coordinates": [ 15.9769434, 45.8010756 ] } },
{ "type": "Feature", "properties": { "country_code": "KE", "name_jp": "ケニア共和国", "name_jps": "ケニア", "capital_jp": "ナイロビ", "capital_en": "Nairobi" }, "geometry": { "type": "Point", "coordinates": [ 36.821837, -1.286585 ] } },
{ "type": "Feature", "properties": { "country_code": "CI", "name_jp": "コートジボワール共和国", "name_jps": "コートジボワール", "capital_jp": "ヤムスクロ", "capital_en": "Yamoussoukro" }, "geometry": { "type": "Point", "coordinates": [ -5.2651817, 6.8368314 ] } },
{ "type": "Feature", "properties": { "country_code": "CR", "name_jp": "コスタリカ共和国", "name_jps": "コスタリカ", "capital_jp": "サンホセ", "capital_en": "San Jose" }, "geometry": { "type": "Point", "coordinates": [ -84.0947699, 9.931413 ] } },
{ "type": "Feature", "properties": { "country_code": "KS", "name_jp": "コソボ共和国", "name_jps": "コソボ", "capital_jp": "プリシュティナ", "capital_en": "Pristina" }, "geometry": { "type": "Point", "coordinates": [ 21.1644271, 42.6663849 ] } },
{ "type": "Feature", "properties": { "country_code": "KM", "name_jp": "コモロ連合", "name_jps": "コモロ", "capital_jp": "モロニ", "capital_en": "Moroni" }, "geometry": { "type": "Point", "coordinates": [ 43.2621239, -11.6759427 ] } },
{ "type": "Feature", "properties": { "country_code": "CO", "name_jp": "コロンビア共和国", "name_jps": "コロンビア", "capital_jp": "ボゴタ", "capital_en": "Bogota" }, "geometry": { "type": "Point", "coordinates": [ -74.076467, 4.5984614 ] } },
{ "type": "Feature", "properties": { "country_code": "CG", "name_jp": "コンゴ共和国", "name_jps": "コンゴ共和国", "capital_jp": "ブラザビル", "capital_en": "Brazzaville" }, "geometry": { "type": "Point", "coordinates": [ 15.2783541, -4.2789639 ] } },
{ "type": "Feature", "properties": { "country_code": "CD", "name_jp": "コンゴ民主共和国", "name_jps": "コンゴ民主共和国", "capital_jp": "キンシャサ", "capital_en": "Kinshasa" }, "geometry": { "type": "Point", "coordinates": [ 15.3084537, -4.3061828 ] } },
{ "type": "Feature", "properties": { "country_code": "SA", "name_jp": "サウジアラビア王国", "name_jps": "サウジアラビア", "capital_jp": "リヤド", "capital_en": "Riyadh" }, "geometry": { "type": "Point", "coordinates": [ 46.7372325, 24.6725488 ] } },
{ "type": "Feature", "properties": { "country_code": "WS", "name_jp": "サモア独立国", "name_jps": "サモア", "capital_jp": "アピア", "capital_en": "Apia" }, "geometry": { "type": "Point", "coordinates": [ -171.7668515, -13.8303712 ] } },
{ "type": "Feature", "properties": { "country_code": "ST", "name_jp": "サントメ・プリンシペ民主共和国", "name_jps": "サントメ・プリンシペ", "capital_jp": "サントメ", "capital_en": "Sao Tome" }, "geometry": { "type": "Point", "coordinates": [ 6.7331863, 0.3391213 ] } },
{ "type": "Feature", "properties": { "country_code": "ZM", "name_jp": "ザンビア共和国", "name_jps": "ザンビア", "capital_jp": "ルサカ", "capital_en": "Lusaka" }, "geometry": { "type": "Point", "coordinates": [ 28.3010351, -15.4209502 ] } },
{ "type": "Feature", "properties": { "country_code": "SM", "name_jp": "サンマリノ共和国", "name_jps": "サンマリノ", "capital_jp": "サンマリノ", "capital_en": "San Marino" }, "geometry": { "type": "Point", "coordinates": [ 12.4465013, 43.9367371 ] } },
{ "type": "Feature", "properties": { "country_code": "SL", "name_jp": "シエラレオネ共和国", "name_jps": "シエラレオネ", "capital_jp": "フリータウン", "capital_en": "Freetown" }, "geometry": { "type": "Point", "coordinates": [ -13.2354989, 8.4904231 ] } },
{ "type": "Feature", "properties": { "country_code": "DJ", "name_jp": "ジブチ共和国", "name_jps": "ジブチ", "capital_jp": "ジブチ", "capital_en": "Djibouti" }, "geometry": { "type": "Point", "coordinates": [ 43.148222, 11.594454 ] } },
{ "type": "Feature", "properties": { "country_code": "JM", "name_jp": "ジャマイカ", "name_jps": "ジャマイカ", "capital_jp": "キングストン", "capital_en": "Kingston" }, "geometry": { "type": "Point", "coordinates": [ -76.7919497, 17.9669016 ] } },
{ "type": "Feature", "properties": { "country_code": "GE", "name_jp": "ジョージア", "name_jps": "ジョージア", "capital_jp": "トビリシ", "capital_en": "Tbilisi" }, "geometry": { "type": "Point", "coordinates": [ 44.775287, 41.7257221 ] } },
{ "type": "Feature", "properties": { "country_code": "SY", "name_jp": "シリア・アラブ共和国", "name_jps": "シリア", "capital_jp": "ダマスカス", "capital_en": "Damascus" }, "geometry": { "type": "Point", "coordinates": [ 36.2956763, 33.5156746 ] } },
{ "type": "Feature", "properties": { "country_code": "SG", "name_jp": "シンガポール共和国", "name_jps": "シンガポール", "capital_jp": "シンガポール", "capital_en": "Singapore" }, "geometry": { "type": "Point", "coordinates": [ 103.8431002, 1.3067039 ] } },
{ "type": "Feature", "properties": { "country_code": "ZW", "name_jp": "ジンバブエ共和国", "name_jps": "ジンバブエ", "capital_jp": "ハラレ", "capital_en": "Harare" }, "geometry": { "type": "Point", "coordinates": [ 31.0461399, -17.8319021 ] } },
{ "type": "Feature", "properties": { "country_code": "CH", "name_jp": "スイス連邦", "name_jps": "スイス", "capital_jp": "ベルン", "capital_en": "Bern" }, "geometry": { "type": "Point", "coordinates": [ 7.4523275, 46.9487624 ] } },
{ "type": "Feature", "properties": { "country_code": "SE", "name_jp": "スウェーデン王国", "name_jps": "スウェーデン", "capital_jp": "ストックホルム", "capital_en": "Stockholm" }, "geometry": { "type": "Point", "coordinates": [ 18.0543456, 59.3274506 ] } },
{ "type": "Feature", "properties": { "country_code": "SD", "name_jp": "スーダン共和国", "name_jps": "スーダン", "capital_jp": "ハルツーム", "capital_en": "Khartoum" }, "geometry": { "type": "Point", "coordinates": [ 32.5182284, 15.6074317 ] } },
{ "type": "Feature", "properties": { "country_code": "ES", "name_jp": "スペイン", "name_jps": "スペイン", "capital_jp": "マドリード", "capital_en": "Madrid" }, "geometry": { "type": "Point", "coordinates": [ -3.6918174, 40.4183806 ] } },
{ "type": "Feature", "properties": { "country_code": "SR", "name_jp": "スリナム共和国", "name_jps": "スリナム", "capital_jp": "パラマリボ", "capital_en": "Paramaribo" }, "geometry": { "type": "Point", "coordinates": [ -55.1512507, 5.8267931 ] } },
{ "type": "Feature", "properties": { "country_code": "LK", "name_jp": "スリランカ民主社会主義共和国", "name_jps": "スリランカ", "capital_jp": "スリジャヤワルダナプラコッテ", "capital_en": "Sri Jayawardenapura-Kotte" }, "geometry": { "type": "Point", "coordinates": [ 79.8949571, 6.9076384 ] } },
{ "type": "Feature", "properties": { "country_code": "SK", "name_jp": "スロバキア共和国", "name_jps": "スロバキア", "capital_jp": "ブラチスラバ", "capital_en": "Bratislava" }, "geometry": { "type": "Point", "coordinates": [ 17.1097025, 48.1439306 ] } },
{ "type": "Feature", "properties": { "country_code": "SI", "name_jp": "スロベニア共和国", "name_jps": "スロベニア", "capital_jp": "リュブリャナ", "capital_en": "Ljubljana" }, "geometry": { "type": "Point", "coordinates": [ 14.5072339, 46.0499639 ] } },
{ "type": "Feature", "properties": { "country_code": "SC", "name_jp": "セーシェル共和国", "name_jps": "セーシェル", "capital_jp": "ビクトリア", "capital_en": "Victoria" }, "geometry": { "type": "Point", "coordinates": [ 55.4514333, -4.6234329 ] } },
{ "type": "Feature", "properties": { "country_code": "GQ", "name_jp": "赤道ギニア共和国", "name_jps": "赤道ギニア", "capital_jp": "マラボ", "capital_en": "Malabo" }, "geometry": { "type": "Point", "coordinates": [ 8.7831555, 3.7554335 ] } },
{ "type": "Feature", "properties": { "country_code": "SN", "name_jp": "セネガル共和国", "name_jps": "セネガル", "capital_jp": "ダカール", "capital_en": "Dakar" }, "geometry": { "type": "Point", "coordinates": [ -17.4315476, 14.6721562 ] } },
{ "type": "Feature", "properties": { "country_code": "RS", "name_jp": "セルビア共和国", "name_jps": "セルビア", "capital_jp": "ベオグラード", "capital_en": "Belgrade" }, "geometry": { "type": "Point", "coordinates": [ 20.4625572, 44.8107948 ] } },
{ "type": "Feature", "properties": { "country_code": "KN", "name_jp": "セントクリストファー・ネービス", "name_jps": "セントキッツ", "capital_jp": "バセテール", "capital_en": "Basseterre" }, "geometry": { "type": "Point", "coordinates": [ -62.7251258, 17.2956212 ] } },
{ "type": "Feature", "properties": { "country_code": "VC", "name_jp": "セントビンセント及びグレナディーン諸島", "name_jps": "セントビンセント・グレナディーン", "capital_jp": "キングスタウン", "capital_en": "Kingstown" }, "geometry": { "type": "Point", "coordinates": [ -61.2245362, 13.1547518 ] } },
{ "type": "Feature", "properties": { "country_code": "LC", "name_jp": "セントルシア", "name_jps": "セントルシア", "capital_jp": "カストリーズ", "capital_en": "Castries" }, "geometry": { "type": "Point", "coordinates": [ -60.9897053, 14.0098124 ] } },
{ "type": "Feature", "properties": { "country_code": "SO", "name_jp": "ソマリア連邦共和国", "name_jps": "ソマリア", "capital_jp": "モガディシオ", "capital_en": "Mogadishu" }, "geometry": { "type": "Point", "coordinates": [ 45.3418305, 2.0348901 ] } },
{ "type": "Feature", "properties": { "country_code": "SB", "name_jp": "ソロモン諸島", "name_jps": "ソロモン諸島", "capital_jp": "ホニアラ", "capital_en": "Honiara" }, "geometry": { "type": "Point", "coordinates": [ 159.9633082, -9.4353695 ] } },
{ "type": "Feature", "properties": { "country_code": "TH", "name_jp": "タイ王国", "name_jps": "タイ", "capital_jp": "バンコク", "capital_en": "Bangkok" }, "geometry": { "type": "Point", "coordinates": [ 100.5018236, 13.7538189 ] } },
{ "type": "Feature", "properties": { "country_code": "TW", "name_jp": "台湾（中華民国）", "name_jps": "台湾", "capital_jp": "台北（タイペイ）", "capital_en": "Taipei" }, "geometry": { "type": "Point", "coordinates": [ 121.5644327, 25.0375417 ] } },
{ "type": "Feature", "properties": { "country_code": "TJ", "name_jp": "タジキスタン共和国", "name_jps": "タジキスタン", "capital_jp": "ドゥシャンベ", "capital_en": "Dushanbe" }, "geometry": { "type": "Point", "coordinates": [ 68.7870384, 38.5597722 ] } },
{ "type": "Feature", "properties": { "country_code": "TZ", "name_jp": "タンザニア連合共和国", "name_jps": "タンザニア", "capital_jp": "ドドマ", "capital_en": "Dodoma" }, "geometry": { "type": "Point", "coordinates": [ 35.7508803, -6.1785745 ] } },
{ "type": "Feature", "properties": { "country_code": "CZ", "name_jp": "チェコ共和国", "name_jps": "チェコ", "capital_jp": "プラハ", "capital_en": "Prague" }, "geometry": { "type": "Point", "coordinates": [ 14.4212465, 50.0782622 ] } },
{ "type": "Feature", "properties": { "country_code": "TD", "name_jp": "チャド共和国", "name_jps": "チャド", "capital_jp": "ウンジャメナ", "capital_en": "N'Djamena" }, "geometry": { "type": "Point", "coordinates": [ 15.0448322, 12.1052915 ] } },
{ "type": "Feature", "properties": { "country_code": "CF", "name_jp": "中央アフリカ共和国", "name_jps": "中央アフリカ", "capital_jp": "バンギ", "capital_en": "Bangui" }, "geometry": { "type": "Point", "coordinates": [ 18.5836076, 4.3635651 ] } },
{ "type": "Feature", "properties": { "country_code": "CN", "name_jp": "中華人民共和国", "name_jps": "中国", "capital_jp": "北京（ペキン）", "capital_en": "Beijing" }, "geometry": { "type": "Point", "coordinates": [ 116.7184868, 39.9046496 ] } },
{ "type": "Feature", "properties": { "country_code": "TN", "name_jp": "チュニジア共和国", "name_jps": "チュニジア", "capital_jp": "チュニス", "capital_en": "Tunis" }, "geometry": { "type": "Point", "coordinates": [ 10.1659935, 36.7974237 ] } },
{ "type": "Feature", "properties": { "country_code": "CL", "name_jp": "チリ共和国", "name_jps": "チリ", "capital_jp": "サンティアゴ", "capital_en": "Santiago" }, "geometry": { "type": "Point", "coordinates": [ -70.6502521, -33.4371435 ] } },
{ "type": "Feature", "properties": { "country_code": "TV", "name_jp": "ツバル", "name_jps": "ツバル", "capital_jp": "フナフティ", "capital_en": "Funafuti" }, "geometry": { "type": "Point", "coordinates": [ 179.194428, -8.5243806 ] } },
{ "type": "Feature", "properties": { "country_code": "DK", "name_jp": "デンマーク王国", "name_jps": "デンマーク", "capital_jp": "コペンハーゲン", "capital_en": "Copenhagen" }, "geometry": { "type": "Point", "coordinates": [ 12.5701632, 55.6752833 ] } },
{ "type": "Feature", "properties": { "country_code": "DE", "name_jp": "ドイツ連邦共和国", "name_jps": "ドイツ", "capital_jp": "ベルリン", "capital_en": "Berlin" }, "geometry": { "type": "Point", "coordinates": [ 13.4086443, 52.5182775 ] } },
{ "type": "Feature", "properties": { "country_code": "TG", "name_jp": "トーゴ共和国", "name_jps": "トーゴ", "capital_jp": "ロメ", "capital_en": "Lome" }, "geometry": { "type": "Point", "coordinates": [ 1.2153581, 6.1310843 ] } },
{ "type": "Feature", "properties": { "country_code": "DO", "name_jp": "ドミニカ共和国", "name_jps": "ドミニカ共和国", "capital_jp": "サントドミンゴ", "capital_en": "Santo Domingo" }, "geometry": { "type": "Point", "coordinates": [ -69.9269311, 18.4482387 ] } },
{ "type": "Feature", "properties": { "country_code": "DM", "name_jp": "ドミニカ国", "name_jps": "ドミニカ国", "capital_jp": "ロゾー", "capital_en": "Roseau" }, "geometry": { "type": "Point", "coordinates": [ -61.3860266, 15.3015543 ] } },
{ "type": "Feature", "properties": { "country_code": "TT", "name_jp": "トリニダード・トバゴ共和国", "name_jps": "トリニダード・トバゴ", "capital_jp": "ポートオブスペイン", "capital_en": "Port of Spain" }, "geometry": { "type": "Point", "coordinates": [ -61.5097941, 10.6540471 ] } },
{ "type": "Feature", "properties": { "country_code": "TM", "name_jp": "トルクメニスタン", "name_jps": "トルクメニスタン", "capital_jp": "アシガバット", "capital_en": "Ashgabat" }, "geometry": { "type": "Point", "coordinates": [ 58.3547629, 37.9468045 ] } },
{ "type": "Feature", "properties": { "country_code": "TR", "name_jp": "トルコ共和国", "name_jps": "トルコ", "capital_jp": "アンカラ", "capital_en": "Ankara" }, "geometry": { "type": "Point", "coordinates": [ 32.8382867, 39.9395921 ] } },
{ "type": "Feature", "properties": { "country_code": "TO", "name_jp": "トンガ王国", "name_jps": "トンガ", "capital_jp": "ヌクアロファ", "capital_en": "Nuku'alofa" }, "geometry": { "type": "Point", "coordinates": [ -175.1987143, -21.1327551 ] } },
{ "type": "Feature", "properties": { "country_code": "NG", "name_jp": "ナイジェリア連邦共和国", "name_jps": "ナイジェリア", "capital_jp": "アブジャ", "capital_en": "Abuja" }, "geometry": { "type": "Point", "coordinates": [ 7.5020739, 9.0476037 ] } },
{ "type": "Feature", "properties": { "country_code": "NR", "name_jp": "ナウル共和国", "name_jps": "ナウル", "capital_jp": "ヤレン", "capital_en": "Yaren" }, "geometry": { "type": "Point", "coordinates": [ 166.917381, -0.5473977 ] } },
{ "type": "Feature", "properties": { "country_code": "NA", "name_jp": "ナミビア共和国", "name_jps": "ナミビア", "capital_jp": "ウィントフック", "capital_en": "Windhoek" }, "geometry": { "type": "Point", "coordinates": [ 17.0855789, -22.5716018 ] } },
{ "type": "Feature", "properties": { "country_code": "NU", "name_jp": "ニウエ", "name_jps": "ニウエ", "capital_jp": "アロフィ", "capital_en": "Alofi" }, "geometry": { "type": "Point", "coordinates": [ -169.9212245, -19.0550536 ] } },
{ "type": "Feature", "properties": { "country_code": "NI", "name_jp": "ニカラグア共和国", "name_jps": "ニカラグア", "capital_jp": "マナグア", "capital_en": "Managua" }, "geometry": { "type": "Point", "coordinates": [ -86.2956727, 12.1280927 ] } },
{ "type": "Feature", "properties": { "country_code": "NE", "name_jp": "ニジェール共和国", "name_jps": "ニジェール", "capital_jp": "ニアメ", "capital_en": "Niamey" }, "geometry": { "type": "Point", "coordinates": [ 2.1091785, 13.5138169 ] } },
{ "type": "Feature", "properties": { "country_code": "JP", "name_jp": "日本国", "name_jps": "日本", "capital_jp": "東京", "capital_en": "Tokyo" }, "geometry": { "type": "Point", "coordinates": [ 139.6921007, 35.6896342 ] } },
{ "type": "Feature", "properties": { "country_code": "NZ", "name_jp": "ニュージーランド", "name_jps": "ニュージーランド", "capital_jp": "ウェリントン", "capital_en": "Wellington" }, "geometry": { "type": "Point", "coordinates": [ 174.7774235, -41.2893299 ] } },
{ "type": "Feature", "properties": { "country_code": "NP", "name_jp": "ネパール連邦民主共和国", "name_jps": "ネパール", "capital_jp": "カトマンズ", "capital_en": "Kathmandu" }, "geometry": { "type": "Point", "coordinates": [ 85.3120666, 27.6987726 ] } },
{ "type": "Feature", "properties": { "country_code": "NO", "name_jp": "ノルウェー王国", "name_jps": "ノルウェー", "capital_jp": "オスロ", "capital_en": "Oslo" }, "geometry": { "type": "Point", "coordinates": [ 10.7337252, 59.9121487 ] } },
{ "type": "Feature", "properties": { "country_code": "BH", "name_jp": "バーレーン王国", "name_jps": "バーレーン", "capital_jp": "マナーマ", "capital_en": "Manama" }, "geometry": { "type": "Point", "coordinates": [ 50.5720162, 26.2334989 ] } },
{ "type": "Feature", "properties": { "country_code": "HT", "name_jp": "ハイチ共和国", "name_jps": "ハイチ", "capital_jp": "ポルトープランス", "capital_en": "Port-au-Prince" }, "geometry": { "type": "Point", "coordinates": [ -72.3472422, 18.5504522 ] } },
{ "type": "Feature", "properties": { "country_code": "PK", "name_jp": "パキスタン・イスラム共和国", "name_jps": "パキスタン", "capital_jp": "イスラマバード", "capital_en": "Islamabad" }, "geometry": { "type": "Point", "coordinates": [ 73.0108131, 33.6669681 ] } },
{ "type": "Feature", "properties": { "country_code": "VA", "name_jp": "バチカン市国（法王聖座）", "name_jps": "バチカン", "capital_jp": "バチカン", "capital_en": "Vatican City" }, "geometry": { "type": "Point", "coordinates": [ 12.4511559, 41.9022141 ] } },
{ "type": "Feature", "properties": { "country_code": "PA", "name_jp": "パナマ共和国", "name_jps": "パナマ", "capital_jp": "パナマシティ", "capital_en": "Panama City" }, "geometry": { "type": "Point", "coordinates": [ -79.5347442, 8.9709043 ] } },
{ "type": "Feature", "properties": { "country_code": "VU", "name_jp": "バヌアツ共和国", "name_jps": "バヌアツ", "capital_jp": "ポートビラ", "capital_en": "Port Vila" }, "geometry": { "type": "Point", "coordinates": [ 168.315030799999988, -17.7365128 ] } },
{ "type": "Feature", "properties": { "country_code": "BS", "name_jp": "バハマ国", "name_jps": "バハマ", "capital_jp": "ナッソー", "capital_en": "Nassau" }, "geometry": { "type": "Point", "coordinates": [ -77.381829, 25.0696963 ] } },
{ "type": "Feature", "properties": { "country_code": "PG", "name_jp": "パプアニューギニア独立国", "name_jps": "パプアニューギニア", "capital_jp": "ポートモレスビー", "capital_en": "Port Moresby" }, "geometry": { "type": "Point", "coordinates": [ 147.1799135, -9.4400735 ] } },
{ "type": "Feature", "properties": { "country_code": "PW", "name_jp": "パラオ共和国", "name_jps": "パラオ", "capital_jp": "マルキョク", "capital_en": "Melekeok" }, "geometry": { "type": "Point", "coordinates": [ 134.6363182, 7.4924429 ] } },
{ "type": "Feature", "properties": { "country_code": "PY", "name_jp": "パラグアイ共和国", "name_jps": "パラグアイ", "capital_jp": "アスンシオン", "capital_en": "Asuncion" }, "geometry": { "type": "Point", "coordinates": [ -57.5595886, -25.3043626 ] } },
{ "type": "Feature", "properties": { "country_code": "BB", "name_jp": "バルバドス", "name_jps": "バルバドス", "capital_jp": "ブリッジタウン", "capital_en": "Bridgetown" }, "geometry": { "type": "Point", "coordinates": [ -59.5994742, 13.1012839 ] } },
{ "type": "Feature", "properties": { "country_code": "HU", "name_jp": "ハンガリー", "name_jps": "ハンガリー", "capital_jp": "ブダペスト", "capital_en": "Budapest" }, "geometry": { "type": "Point", "coordinates": [ 19.045669, 47.507121 ] } },
{ "type": "Feature", "properties": { "country_code": "BD", "name_jp": "バングラデシュ人民共和国", "name_jps": "バングラデシュ", "capital_jp": "ダッカ", "capital_en": "Dhaka" }, "geometry": { "type": "Point", "coordinates": [ 90.4113704, 23.711335 ] } },
{ "type": "Feature", "properties": { "country_code": "TL", "name_jp": "東ティモール民主共和国", "name_jps": "東ティモール", "capital_jp": "ディリ", "capital_en": "Dili" }, "geometry": { "type": "Point", "coordinates": [ 125.5542215, -8.5558455 ] } },
{ "type": "Feature", "properties": { "country_code": "FJ", "name_jp": "フィジー共和国", "name_jps": "フィジー", "capital_jp": "スバ", "capital_en": "Suva" }, "geometry": { "type": "Point", "coordinates": [ 178.4230519, -18.141372 ] } },
{ "type": "Feature", "properties": { "country_code": "PH", "name_jp": "フィリピン共和国", "name_jps": "フィリピン", "capital_jp": "マニラ", "capital_en": "Manila" }, "geometry": { "type": "Point", "coordinates": [ 120.9816112, 14.5895137 ] } },
{ "type": "Feature", "properties": { "country_code": "FI", "name_jp": "フィンランド共和国", "name_jps": "フィンランド", "capital_jp": "ヘルシンキ", "capital_en": "Helsinki" }, "geometry": { "type": "Point", "coordinates": [ 24.952989, 60.1680707 ] } },
{ "type": "Feature", "properties": { "country_code": "BT", "name_jp": "ブータン王国", "name_jps": "ブータン", "capital_jp": "ティンプー", "capital_en": "Thimphu" }, "geometry": { "type": "Point", "coordinates": [ 89.6395567, 27.4687211 ] } },
{ "type": "Feature", "properties": { "country_code": "BR", "name_jp": "ブラジル連邦共和国", "name_jps": "ブラジル", "capital_jp": "ブラジリア", "capital_en": "Brasilia" }, "geometry": { "type": "Point", "coordinates": [ -47.9079509, -15.7845812 ] } },
{ "type": "Feature", "properties": { "country_code": "FR", "name_jp": "フランス共和国", "name_jps": "フランス", "capital_jp": "パリ", "capital_en": "Paris" }, "geometry": { "type": "Point", "coordinates": [ 2.3524135, 48.8564826 ] } },
{ "type": "Feature", "properties": { "country_code": "BG", "name_jp": "ブルガリア共和国", "name_jps": "ブルガリア", "capital_jp": "ソフィア", "capital_en": "Sofia" }, "geometry": { "type": "Point", "coordinates": [ 23.331701, 42.6969843 ] } },
{ "type": "Feature", "properties": { "country_code": "BF", "name_jp": "ブルキナファソ", "name_jps": "ブルキナファソ", "capital_jp": "ワガドゥグー", "capital_en": "Ouagadougou" }, "geometry": { "type": "Point", "coordinates": [ -1.527066, 12.3680826 ] } },
{ "type": "Feature", "properties": { "country_code": "BN", "name_jp": "ブルネイ・ダルサラーム国", "name_jps": "ブルネイ", "capital_jp": "バンダルスリブガワン", "capital_en": "Bandar Seri Begawan" }, "geometry": { "type": "Point", "coordinates": [ 114.930591, 4.9144004 ] } },
{ "type": "Feature", "properties": { "country_code": "BI", "name_jp": "ブルンジ共和国", "name_jps": "ブルンジ", "capital_jp": "ブシュンブラ", "capital_en": "Bujumbura" }, "geometry": { "type": "Point", "coordinates": [ 29.3642066, -3.3751554 ] } },
{ "type": "Feature", "properties": { "country_code": "VN", "name_jp": "ベトナム社会主義共和国", "name_jps": "ベトナム", "capital_jp": "ハノイ", "capital_en": "Hanoi" }, "geometry": { "type": "Point", "coordinates": [ 105.8542103, 21.0282935 ] } },
{ "type": "Feature", "properties": { "country_code": "BJ", "name_jp": "ベナン共和国", "name_jps": "ベナン", "capital_jp": "ポルトノボ", "capital_en": "Porto-Novo" }, "geometry": { "type": "Point", "coordinates": [ 2.6420373, 6.4726571 ] } },
{ "type": "Feature", "properties": { "country_code": "VE", "name_jp": "ベネズエラ・ボリバル共和国", "name_jps": "ベネズエラ", "capital_jp": "カラカス", "capital_en": "Caracas" }, "geometry": { "type": "Point", "coordinates": [ -66.9150848, 10.5049943 ] } },
{ "type": "Feature", "properties": { "country_code": "BY", "name_jp": "ベラルーシ共和国", "name_jps": "ベラルーシ", "capital_jp": "ミンスク", "capital_en": "Minsk" }, "geometry": { "type": "Point", "coordinates": [ 27.5497696, 53.8952131 ] } },
{ "type": "Feature", "properties": { "country_code": "BZ", "name_jp": "ベリーズ", "name_jps": "ベリーズ", "capital_jp": "ベルモパン", "capital_en": "Belmopan" }, "geometry": { "type": "Point", "coordinates": [ -88.7679617, 17.2514006 ] } },
{ "type": "Feature", "properties": { "country_code": "PE", "name_jp": "ペルー共和国", "name_jps": "ペルー", "capital_jp": "リマ", "capital_en": "Lima" }, "geometry": { "type": "Point", "coordinates": [ -77.0311674, -12.0452322 ] } },
{ "type": "Feature", "properties": { "country_code": "BE", "name_jp": "ベルギー王国", "name_jps": "ベルギー", "capital_jp": "ブリュッセル", "capital_en": "Brussels" }, "geometry": { "type": "Point", "coordinates": [ 4.3518717, 50.8465882 ] } },
{ "type": "Feature", "properties": { "country_code": "PL", "name_jp": "ポーランド共和国", "name_jps": "ポーランド", "capital_jp": "ワルシャワ", "capital_en": "Warsaw" }, "geometry": { "type": "Point", "coordinates": [ 21.0061014, 52.2317616 ] } },
{ "type": "Feature", "properties": { "country_code": "BA", "name_jp": "ボスニア・ヘルツェゴビナ", "name_jps": "ボスニア・ヘルツェゴビナ", "capital_jp": "サラエボ", "capital_en": "Sarajevo" }, "geometry": { "type": "Point", "coordinates": [ 18.4334395, 43.8589239 ] } },
{ "type": "Feature", "properties": { "country_code": "BW", "name_jp": "ボツワナ共和国", "name_jps": "ボツワナ", "capital_jp": "ハボローネ", "capital_en": "Gaborone" }, "geometry": { "type": "Point", "coordinates": [ 25.9199318, -24.6581844 ] } },
{ "type": "Feature", "properties": { "country_code": "BO", "name_jp": "ボリビア多民族国", "name_jps": "ボリビア", "capital_jp": "ラパス", "capital_en": "La Paz" }, "geometry": { "type": "Point", "coordinates": [ -68.1339763, -16.4981187 ] } },
{ "type": "Feature", "properties": { "country_code": "PT", "name_jp": "ポルトガル共和国", "name_jps": "ポルトガル", "capital_jp": "リスボン", "capital_en": "Lisbon" }, "geometry": { "type": "Point", "coordinates": [ -9.1385651, 38.7081851 ] } },
{ "type": "Feature", "properties": { "country_code": "HN", "name_jp": "ホンジュラス共和国", "name_jps": "ホンジュラス", "capital_jp": "テグシガルパ", "capital_en": "Tegucigalpa" }, "geometry": { "type": "Point", "coordinates": [ -87.176558, 14.111096 ] } },
{ "type": "Feature", "properties": { "country_code": "MH", "name_jp": "マーシャル諸島共和国", "name_jps": "マーシャル諸島", "capital_jp": "マジュロ", "capital_en": "Majuro" }, "geometry": { "type": "Point", "coordinates": [ 171.3732812, 7.0858399 ] } },
{ "type": "Feature", "properties": { "country_code": "MG", "name_jp": "マダガスカル共和国", "name_jps": "マダガスカル", "capital_jp": "アンタナナリボ", "capital_en": "Antananarivo" }, "geometry": { "type": "Point", "coordinates": [ 47.5236879, -18.9052409 ] } },
{ "type": "Feature", "properties": { "country_code": "MW", "name_jp": "マラウイ共和国", "name_jps": "マラウイ", "capital_jp": "リロングウェ", "capital_en": "Lilongwe" }, "geometry": { "type": "Point", "coordinates": [ 33.790053, -13.9585607 ] } },
{ "type": "Feature", "properties": { "country_code": "ML", "name_jp": "マリ共和国", "name_jps": "マリ", "capital_jp": "バマコ", "capital_en": "Bamako" }, "geometry": { "type": "Point", "coordinates": [ -8.001597, 12.6471316 ] } },
{ "type": "Feature", "properties": { "country_code": "MT", "name_jp": "マルタ共和国", "name_jps": "マルタ", "capital_jp": "バレッタ", "capital_en": "Valletta" }, "geometry": { "type": "Point", "coordinates": [ 14.5134142, 35.8982566 ] } },
{ "type": "Feature", "properties": { "country_code": "MY", "name_jp": "マレーシア", "name_jps": "マレーシア", "capital_jp": "クアラルンプール", "capital_en": "Kuala Lumpur" }, "geometry": { "type": "Point", "coordinates": [ 101.6940229, 3.152362 ] } },
{ "type": "Feature", "properties": { "country_code": "FM", "name_jp": "ミクロネシア連邦", "name_jps": "ミクロネシア", "capital_jp": "パリキール", "capital_en": "Palikir" }, "geometry": { "type": "Point", "coordinates": [ 158.16205, 6.9202502 ] } },
{ "type": "Feature", "properties": { "country_code": "ZA", "name_jp": "南アフリカ共和国", "name_jps": "南アフリカ", "capital_jp": "プレトリア（ツワネ）", "capital_en": "Pretoria (Tshwane)" }, "geometry": { "type": "Point", "coordinates": [ 28.1936545, -25.7440354 ] } },
{ "type": "Feature", "properties": { "country_code": "SS", "name_jp": "南スーダン共和国", "name_jps": "南スーダン", "capital_jp": "ジュバ", "capital_en": "Juba" }, "geometry": { "type": "Point", "coordinates": [ 31.6061523, 4.8372943 ] } },
{ "type": "Feature", "properties": { "country_code": "MM", "name_jp": "ミャンマー連邦共和国", "name_jps": "ミャンマー", "capital_jp": "ネーピードー", "capital_en": "Naypyidaw" }, "geometry": { "type": "Point", "coordinates": [ 96.1295371, 19.7465201 ] } },
{ "type": "Feature", "properties": { "country_code": "MX", "name_jp": "メキシコ合衆国", "name_jps": "メキシコ", "capital_jp": "メキシコシティ", "capital_en": "Mexico City" }, "geometry": { "type": "Point", "coordinates": [ -99.1339996, 19.431793 ] } },
{ "type": "Feature", "properties": { "country_code": "MU", "name_jp": "モーリシャス共和国", "name_jps": "モーリシャス", "capital_jp": "ポートルイス", "capital_en": "Port Louis" }, "geometry": { "type": "Point", "coordinates": [ 57.5044541, -20.1642942 ] } },
{ "type": "Feature", "properties": { "country_code": "MR", "name_jp": "モーリタニア・イスラム共和国", "name_jps": "モーリタニア", "capital_jp": "ヌアクショット", "capital_en": "Nouakchott" }, "geometry": { "type": "Point", "coordinates": [ -15.972601, 18.085313 ] } },
{ "type": "Feature", "properties": { "country_code": "MZ", "name_jp": "モザンビーク共和国", "name_jps": "モザンビーク", "capital_jp": "マプト", "capital_en": "Maputo" }, "geometry": { "type": "Point", "coordinates": [ 32.5737726, -25.9681995 ] } },
{ "type": "Feature", "properties": { "country_code": "MC", "name_jp": "モナコ公国", "name_jps": "モナコ", "capital_jp": "モナコ", "capital_en": "Monaco" }, "geometry": { "type": "Point", "coordinates": [ 7.4237648, 43.7308008 ] } },
{ "type": "Feature", "properties": { "country_code": "MV", "name_jp": "モルディブ共和国", "name_jps": "モルディブ", "capital_jp": "マレ", "capital_en": "Male" }, "geometry": { "type": "Point", "coordinates": [ 73.5088271, 4.1714171 ] } },
{ "type": "Feature", "properties": { "country_code": "MD", "name_jp": "モルドバ共和国", "name_jps": "モルドバ", "capital_jp": "キシナウ", "capital_en": "Chisinau" }, "geometry": { "type": "Point", "coordinates": [ 28.8346231, 47.0227297 ] } },
{ "type": "Feature", "properties": { "country_code": "MA", "name_jp": "モロッコ王国", "name_jps": "モロッコ", "capital_jp": "ラバト", "capital_en": "Rabat" }, "geometry": { "type": "Point", "coordinates": [ -6.8247161, 33.9769906 ] } },
{ "type": "Feature", "properties": { "country_code": "MN", "name_jp": "モンゴル国", "name_jps": "モンゴル", "capital_jp": "ウランバートル", "capital_en": "Ulan Bator" }, "geometry": { "type": "Point", "coordinates": [ 106.9158415, 47.9186873 ] } },
{ "type": "Feature", "properties": { "country_code": "ME", "name_jp": "モンテネグロ", "name_jps": "モンテネグロ", "capital_jp": "ポドゴリツァ", "capital_en": "Podgorica" }, "geometry": { "type": "Point", "coordinates": [ 19.261361, 42.4417374 ] } },
{ "type": "Feature", "properties": { "country_code": "JO", "name_jp": "ヨルダン・ハシェミット王国", "name_jps": "ヨルダン", "capital_jp": "アンマン", "capital_en": "Amman" }, "geometry": { "type": "Point", "coordinates": [ 35.9241825, 31.945327 ] } },
{ "type": "Feature", "properties": { "country_code": "LA", "name_jp": "ラオス人民民主共和国", "name_jps": "ラオス", "capital_jp": "ビエンチャン", "capital_en": "Vientiane" }, "geometry": { "type": "Point", "coordinates": [ 102.6198759, 17.9688079 ] } },
{ "type": "Feature", "properties": { "country_code": "LV", "name_jp": "ラトビア共和国", "name_jps": "ラトビア", "capital_jp": "リガ", "capital_en": "Riga" }, "geometry": { "type": "Point", "coordinates": [ 24.1064499, 56.9478345 ] } },
{ "type": "Feature", "properties": { "country_code": "LT", "name_jp": "リトアニア共和国", "name_jps": "リトアニア", "capital_jp": "ビリニュス", "capital_en": "Vilnius" }, "geometry": { "type": "Point", "coordinates": [ 25.2869324, 54.6781767 ] } },
{ "type": "Feature", "properties": { "country_code": "LY", "name_jp": "リビア", "name_jps": "リビア", "capital_jp": "トリポリ", "capital_en": "Tripoli" }, "geometry": { "type": "Point", "coordinates": [ 13.1867723, 32.8911679 ] } },
{ "type": "Feature", "properties": { "country_code": "LI", "name_jp": "リヒテンシュタイン公国", "name_jps": "リヒテンシュタイン", "capital_jp": "ファドーツ", "capital_en": "Vaduz" }, "geometry": { "type": "Point", "coordinates": [ 9.5220312, 47.1407908 ] } },
{ "type": "Feature", "properties": { "country_code": "LR", "name_jp": "リベリア共和国", "name_jps": "リベリア", "capital_jp": "モンロビア", "capital_en": "Monrovia" }, "geometry": { "type": "Point", "coordinates": [ -10.7934825, 6.2954554 ] } },
{ "type": "Feature", "properties": { "country_code": "RO", "name_jp": "ルーマニア", "name_jps": "ルーマニア", "capital_jp": "ブカレスト", "capital_en": "Bucharest" }, "geometry": { "type": "Point", "coordinates": [ 26.0931862, 44.4344622 ] } },
{ "type": "Feature", "properties": { "country_code": "LU", "name_jp": "ルクセンブルク大公国", "name_jps": "ルクセンブルク", "capital_jp": "ルクセンブルク", "capital_en": "Luxembourg" }, "geometry": { "type": "Point", "coordinates": [ 6.1305292, 49.6101729 ] } },
{ "type": "Feature", "properties": { "country_code": "RW", "name_jp": "ルワンダ共和国", "name_jps": "ルワンダ", "capital_jp": "キガリ", "capital_en": "Kigali" }, "geometry": { "type": "Point", "coordinates": [ 30.06036, -1.9483086 ] } },
{ "type": "Feature", "properties": { "country_code": "LS", "name_jp": "レソト王国", "name_jps": "レソト", "capital_jp": "マセル", "capital_en": "Maseru" }, "geometry": { "type": "Point", "coordinates": [ 27.4863691, -29.3120149 ] } },
{ "type": "Feature", "properties": { "country_code": "LB", "name_jp": "レバノン共和国", "name_jps": "レバノン", "capital_jp": "ベイルート", "capital_en": "Beirut" }, "geometry": { "type": "Point", "coordinates": [ 35.5021534, 33.879704 ] } },
{ "type": "Feature", "properties": { "country_code": "RU", "name_jp": "ロシア連邦", "name_jps": "ロシア", "capital_jp": "モスクワ", "capital_en": "Moscow" }, "geometry": { "type": "Point", "coordinates": [ 37.6089367, 55.7613895 ] } }
]
}
